Flight,Time,Altitude,LatError_Meters,LngError_Meters,Heading,Pitch,Roll,Latitude Change Meters,Longitude Change Meters
Flight 1,488860.5745,82689.13863,-97,3582,90,Retrograde,25,,
Flight 1,488860.7145,82631.94939,-97,3582,90,Retrograde,25,0,0
Flight 1,488860.8545,82574.57189,-99,3582,90,Retrograde,25,0,-2
Flight 1,488860.9945,82517.00857,-102,3583,90,Retrograde,35,-1,-3
Flight 1,488861.1345,82459.25418,-104,3584,90,Retrograde,35,-1,-2
Flight 1,488861.2745,82401.3183,-108,3585,90,Retrograde,35,-1,-4
Flight 1,488861.4145,82343.19382,-111,3586,90,Retrograde,35,-1,-3
Flight 1,488861.5545,82284.88292,-113,3587,90,Retrograde,35,-1,-2
Flight 1,488861.6945,82226.39242,-116,3588,90,Retrograde,35,-1,-3
Flight 1,488861.8345,82167.7127,-118,3588,90,Retrograde,35,0,-2
Flight 1,488861.9745,82108.8447,-121,3589,90,Retrograde,35,-1,-3
Flight 1,488862.1145,82049.78623,-123,3590,90,Retrograde,35,-1,-2
Flight 1,488862.2545,81990.54228,-126,3590,90,Retrograde,35,0,-3
Flight 1,488862.3945,81931.11591,-128,3591,90,Retrograde,35,-1,-2
Flight 1,488862.5345,81871.49941,-130,3592,90,Retrograde,35,-1,-2
Flight 1,488862.6745,81811.70115,-131,3592,90,Retrograde,35,0,-1
Flight 1,488862.8145,81751.70562,-130,3591,90,Retrograde,35,1,1
Flight 1,488862.9545,81691.53082,-129,3591,90,Retrograde,35,0,1
Flight 1,488863.0945,81631.17333,-127,3591,90,Retrograde,35,0,2
Flight 1,488863.2345,81570.62758,-125,3591,90,Retrograde,35,0,2
Flight 1,488863.3745,81509.90008,-123,3592,90,Retrograde,35,-1,2
Flight 1,488863.5145,81448.98463,-120,3591,90,Retrograde,35,1,3
Flight 1,488863.6545,81387.88898,-118,3591,90,Retrograde,35,0,2
Flight 1,488863.7945,81326.60572,-114,3591,90,Retrograde,35,0,4
Flight 1,488863.9345,81265.13851,-112,3591,90,Retrograde,35,0,2
Flight 1,488864.0745,81203.48524,-110,3591,90,Retrograde,35,0,2
Flight 1,488864.2145,81141.64928,-108,3590,90,Retrograde,35,1,2
Flight 1,488864.3545,81079.62938,-105,3591,90,Retrograde,35,-1,3
Flight 1,488864.4945,81017.42527,-103,3590,90,Retrograde,35,1,2
Flight 1,488864.6345,80955.03381,-101,3590,90,Retrograde,35,0,2
Flight 1,488864.7745,80892.45875,-99,3590,90,Retrograde,25,0,2
Flight 1,488864.9145,80829.70194,-98,3590,90,Retrograde,25,0,1
Flight 1,488865.0545,80766.75346,-95,3590,90,Retrograde,25,0,3
Flight 1,488865.1945,80703.62323,-92,3590,90,Retrograde,25,0,3
Flight 1,488865.3345,80640.30939,-92,3590,90,Retrograde,25,0,0
Flight 1,488865.4745,80576.80202,-91,3590,90,Retrograde,25,0,1
Flight 1,488865.6145,80513.11502,-91,3590,90,Retrograde,25,0,0
Flight 1,488865.7545,80449.23762,-91,3590,90,Retrograde,25,0,0
Flight 1,488865.8945,80385.17007,-91,3590,90,Retrograde,25,0,0
Flight 1,488866.0345,80320.91984,-92,3590,90,Retrograde,25,0,-1
Flight 1,488866.1745,80256.47854,-94,3590,90,Retrograde,25,0,-2
Flight 1,488866.3145,80191.84803,-94,3591,90,Retrograde,25,-1,0
Flight 1,488866.4545,80127.0351,-96,3590,90,Retrograde,25,1,-2
Flight 1,488866.5945,80062.03083,-96,3590,90,Retrograde,25,0,0
Flight 1,488866.7345,79996.83921,-97,3590,90,Retrograde,25,0,-1
Flight 1,488866.8745,79931.45652,-97,3590,90,Retrograde,25,0,0
Flight 1,488867.0145,79865.89268,-97,3590,90,Retrograde,25,0,0
Flight 1,488867.1545,79800.13903,-97,3591,90,Retrograde,25,-1,0
Flight 1,488867.2945,79734.19991,-97,3591,90,Retrograde,25,0,0
Flight 1,488867.4345,79668.06876,-97,3591,90,Retrograde,25,0,0
Flight 1,488867.5745,79601.75308,-97,3591,90,Retrograde,25,0,0
Flight 1,488867.7145,79535.25099,-97,3591,90,Retrograde,25,0,0
Flight 1,488867.8545,79468.55782,-98,3592,90,Retrograde,25,-1,-1
Flight 1,488867.9945,79401.67857,-99,3592,90,Retrograde,25,0,-1
Flight 1,488868.1345,79334.60964,-98,3592,90,Retrograde,25,0,1
Flight 1,488868.2745,79267.3515,-99,3592,90,Retrograde,25,0,-1
Flight 1,488868.4145,79199.90882,-99,3592,90,Retrograde,25,0,0
Flight 1,488868.5545,79132.27879,-99,3591,90,Retrograde,25,1,0
Flight 1,488868.6945,79064.46375,-99,3591,90,Retrograde,25,0,0
Flight 1,488868.8345,78996.46244,-99,3591,90,Retrograde,25,0,0
Flight 1,488868.9745,78928.26512,-99,3591,90,Retrograde,25,0,0
Flight 1,488869.1145,78859.88371,-99,3591,90,Retrograde,25,0,0
Flight 1,488869.2545,78791.31309,-100,3592,90,Retrograde,35,-1,-1
Flight 1,488869.3945,78722.55174,-100,3592,90,Retrograde,35,0,0
Flight 1,488869.5345,78653.6035,-100,3592,90,Retrograde,35,0,0
Flight 1,488869.6745,78584.47165,-99,3592,90,Retrograde,25,0,1
Flight 1,488869.8145,78515.14919,-99,3592,90,Retrograde,25,0,0
Flight 1,488869.9545,78445.63645,-99,3592,90,Retrograde,25,0,0
Flight 1,488870.0945,78375.94163,-99,3592,90,Retrograde,25,0,0
Flight 1,488870.2345,78306.05947,-99,3592,90,Retrograde,25,0,0
Flight 1,488870.3745,78235.98563,-99,3592,90,Retrograde,25,0,0
Flight 1,488870.5145,78165.72631,-99,3592,90,Retrograde,25,0,0
Flight 1,488870.6545,78095.28152,-99,3591,90,Retrograde,25,1,0
Flight 1,488870.7945,78024.64985,-99,3591,90,Retrograde,25,0,0
Flight 1,488870.9345,77953.83237,-99,3589,90,Retrograde,25,2,0
Flight 1,488871.0745,77882.8314,-99,3587,90,Retrograde,25,2,0
Flight 1,488871.2145,77811.64637,-100,3585,90,Retrograde,35,2,-1
Flight 1,488871.3545,77740.27893,-100,3584,90,Retrograde,35,1,0
Flight 1,488871.4945,77668.71734,-101,3582,90,Retrograde,35,2,-1
Flight 1,488871.6345,77596.97861,-101,3580,90,Retrograde,35,2,0
Flight 1,488871.7745,77525.05582,-101,3578,90,Retrograde,35,2,0
Flight 1,488871.9145,77452.95153,-102,3576,90,Retrograde,35,2,-1
Flight 1,488872.0545,77380.65899,-102,3574,90,Retrograde,35,2,0
Flight 1,488872.1945,77308.18682,-103,3573,90,Retrograde,35,1,-1
Flight 1,488872.3345,77235.53398,-103,3571,90,Retrograde,35,2,0
Flight 1,488872.4745,77162.69007,-104,3569,90,Retrograde,35,2,-1
Flight 1,488872.6145,77089.66549,-104,3567,90,Retrograde,35,2,0
Flight 1,488872.7545,77016.45602,-105,3565,90,Retrograde,35,2,-1
Flight 1,488872.8945,76943.06929,-105,3563,90,Retrograde,35,2,0
Flight 1,488873.0345,76869.48995,-106,3561,90,Retrograde,35,2,-1
Flight 1,488873.1745,76795.73672,-106,3559,90,Retrograde,35,2,0
Flight 1,488873.3145,76721.79476,-107,3557,90,Retrograde,35,2,-1
Flight 1,488873.4545,76647.67412,-107,3556,90,Retrograde,35,1,0
Flight 1,488873.5945,76573.36661,-108,3554,90,Retrograde,35,2,-1
Flight 1,488873.7345,76498.87516,-108,3552,90,Retrograde,35,2,0
Flight 1,488873.8745,76424.1979,-109,3551,90,Retrograde,35,1,-1
Flight 1,488874.0145,76349.34044,-109,3549,90,Retrograde,35,2,0
Flight 1,488874.1545,76274.2967,-109,3547,90,Retrograde,35,2,0
Flight 1,488874.2945,76199.07322,-110,3545,90,Retrograde,35,2,-1
Flight 1,488874.4345,76123.66547,-110,3543,90,Retrograde,35,2,0
Flight 1,488874.5745,76048.07071,-111,3542,90,Retrograde,35,1,-1
Flight 1,488874.7145,75972.29446,-111,3540,90,Retrograde,35,2,0
Flight 1,488874.8545,75896.33709,-112,3538,90,Retrograde,35,2,-1
Flight 1,488874.9945,75820.1891,-112,3535,90,Retrograde,35,3,0
Flight 1,488875.1345,75743.86045,-113,3533,90,Retrograde,35,2,-1
Flight 1,488875.2745,75667.34645,-113,3532,90,Retrograde,35,1,0
Flight 1,488875.4145,75590.65905,-114,3530,90,Retrograde,35,2,-1
Flight 1,488875.5545,75513.78057,-114,3529,90,Retrograde,35,1,0
Flight 1,488875.6945,75436.72036,-114,3527,90,Retrograde,35,2,0
Flight 1,488875.8345,75359.474,-115,3525,90,Retrograde,35,2,-1
Flight 1,488875.9745,75282.04404,-115,3524,90,Retrograde,35,1,0
Flight 1,488876.1145,75204.43201,-115,3524,90,Retrograde,35,0,0
Flight 1,488876.2545,75126.62443,-115,3525,90,Retrograde,35,-1,0
Flight 1,488876.3945,75048.63043,-115,3527,90,Retrograde,35,-2,0
Flight 1,488876.5345,74970.44276,-114,3529,90,Retrograde,35,-2,1
Flight 1,488876.6745,74892.06481,-114,3530,90,Retrograde,35,-1,0
Flight 1,488876.8145,74813.49857,-113,3532,90,Retrograde,35,-2,1
Flight 1,488876.9545,74734.73865,-113,3533,90,Retrograde,35,-1,0
Flight 1,488877.0945,74655.78938,-113,3535,90,Retrograde,35,-2,0
Flight 1,488877.2345,74576.6407,-112,3537,90,Retrograde,35,-2,1
Flight 1,488877.3745,74497.30841,-112,3540,90,Retrograde,35,-3,0
Flight 1,488877.5145,74417.78056,-112,3542,90,Retrograde,35,-2,0
Flight 1,488877.6545,74338.06009,-111,3544,90,Retrograde,35,-2,1
Flight 1,488877.7945,74258.15075,-110,3546,90,Retrograde,35,-2,1
Flight 1,488877.9345,74178.05065,-110,3547,90,Retrograde,35,-1,0
Flight 1,488878.0745,74097.7688,-110,3548,90,Retrograde,35,-1,0
Flight 1,488878.2145,74017.28676,-110,3549,90,Retrograde,35,-1,0
Flight 1,488878.3545,73936.62016,-110,3549,90,Retrograde,35,0,0
Flight 1,488878.4945,73855.77009,-110,3549,90,Retrograde,35,0,0
Flight 1,488878.6345,73774.724,-110,3549,90,Retrograde,35,0,0
Flight 1,488878.7745,73693.4929,-110,3549,90,Retrograde,35,0,0
Flight 1,488878.9145,73612.07879,-110,3549,90,Retrograde,35,0,0
Flight 1,488879.0545,73530.47393,-110,3548,90,Retrograde,35,1,0
Flight 1,488879.1945,73448.67647,-110,3548,90,Retrograde,35,0,0
Flight 1,488879.3345,73366.69552,-110,3549,90,Retrograde,35,-1,0
Flight 1,488879.4745,73284.5257,-110,3549,90,Retrograde,35,0,0
Flight 1,488879.6145,73202.16901,-110,3549,90,Retrograde,35,0,0
Flight 1,488879.7545,73119.62543,-110,3549,90,Retrograde,35,0,0
Flight 1,488879.8945,73036.89264,-110,3549,90,Retrograde,35,0,0
Flight 1,488880.0345,72953.97145,-110,3549,90,Retrograde,35,0,0
Flight 1,488880.1745,72870.8615,-110,3549,90,Retrograde,35,0,0
Flight 1,488880.3145,72787.56762,-110,3549,90,Retrograde,35,0,0
Flight 1,488880.4545,72704.08578,-110,3549,90,Retrograde,35,0,0
Flight 1,488880.5945,72620.41133,-110,3549,90,Retrograde,35,0,0
Flight 1,488880.7345,72536.55527,-110,3548,90,Retrograde,35,1,0
Flight 1,488880.8745,72452.50707,-110,3548,90,Retrograde,35,0,0
Flight 1,488881.0145,72368.27339,-110,3547,90,Retrograde,35,1,0
Flight 1,488881.1545,72283.85096,-110,3548,90,Retrograde,35,-1,0
Flight 1,488881.2945,72199.24153,-110,3548,90,Retrograde,35,0,0
Flight 1,488881.4345,72114.4438,-110,3548,90,Retrograde,35,0,0
Flight 1,488881.5745,72029.45688,-110,3548,90,Retrograde,35,0,0
Flight 1,488881.7145,71944.28494,-110,3548,90,Retrograde,35,0,0
Flight 1,488881.8545,71858.92039,-110,3548,90,Retrograde,35,0,0
Flight 1,488881.9945,71773.37468,-111,3548,90,Retrograde,35,0,-1
Flight 1,488882.1345,71687.63484,-110,3548,90,Retrograde,35,0,1
Flight 1,488882.2745,71601.70579,-110,3548,90,Retrograde,35,0,0
Flight 1,488882.4145,71515.59559,-110,3548,90,Retrograde,35,0,0
Flight 1,488882.5545,71429.29323,-110,3548,90,Retrograde,35,0,0
Flight 1,488882.6945,71342.80541,-110,3548,90,Retrograde,35,0,0
Flight 1,488882.8345,71256.12792,-110,3548,90,Retrograde,35,0,0
Flight 1,488882.9745,71169.26293,-110,3547,90,Retrograde,35,1,0
Flight 1,488883.1145,71082.2106,-110,3547,90,Retrograde,35,0,0
Flight 1,488883.2545,70994.96953,-110,3547,90,Retrograde,35,0,0
Flight 1,488883.3945,70907.53958,-110,3548,90,Retrograde,35,-1,0
Flight 1,488883.5345,70819.91948,-110,3548,90,Retrograde,35,0,0
Flight 1,488883.6745,70732.11962,-110,3548,90,Retrograde,35,0,0
Flight 1,488883.8145,70644.12717,-110,3548,90,Retrograde,35,0,0
Flight 1,488883.9545,70555.9477,-110,3548,90,Retrograde,35,0,0
Flight 1,488884.0945,70467.58148,-111,3548,90,Retrograde,35,0,-1
Flight 1,488884.2345,70379.02112,-110,3549,90,Retrograde,35,-1,1
Flight 1,488884.3745,70290.27388,-110,3548,90,Retrograde,35,1,0
Flight 1,488884.5145,70201.34129,-110,3549,90,Retrograde,35,-1,0
Flight 1,488884.6545,70112.22215,-111,3548,90,Retrograde,35,1,-1
Flight 1,488884.7945,70022.91381,-110,3548,90,Retrograde,35,0,1
Flight 1,488884.9345,69933.41904,-110,3548,90,Retrograde,35,0,0
Flight 1,488885.0745,69843.73353,-110,3547,90,Retrograde,35,1,0
Flight 1,488885.2145,69753.85882,-110,3548,90,Retrograde,35,-1,0
Flight 1,488885.3545,69663.80142,-110,3548,90,Retrograde,35,0,0
Flight 1,488885.4945,69573.55,-110,3548,90,Retrograde,35,0,0
Flight 1,488885.6345,69483.11157,-110,3548,90,Retrograde,35,0,0
Flight 1,488885.7745,69392.4878,-111,3548,90,Retrograde,35,0,-1
Flight 1,488885.9145,69301.67607,-110,3548,90,Retrograde,35,0,1
Flight 1,488886.0545,69210.67127,-110,3548,90,Retrograde,35,0,0
Flight 1,488886.1945,69119.4796,-110,3548,90,Retrograde,35,0,0
Flight 1,488886.3345,69028.10631,-110,3548,90,Retrograde,35,0,0
Flight 1,488886.4745,68936.54087,-110,3549,90,Retrograde,35,-1,0
Flight 1,488886.6145,68844.78854,-110,3548,90,Retrograde,35,1,0
Flight 1,488886.7545,68752.85075,-110,3548,90,Retrograde,35,0,0
Flight 1,488886.8945,68660.72172,-110,3548,90,Retrograde,35,0,0
Flight 1,488887.0345,68568.40489,-110,3547,90,Retrograde,35,1,0
Flight 1,488887.1745,68475.89932,-110,3548,90,Retrograde,35,-1,0
Flight 1,488887.3145,68383.20674,-110,3548,90,Retrograde,35,0,0
Flight 1,488887.4545,68290.324,-110,3548,90,Retrograde,35,0,0
Flight 1,488887.5945,68197.25625,-110,3548,90,Retrograde,35,0,0
Flight 1,488887.7345,68104.00115,-110,3548,90,Retrograde,35,0,0
Flight 1,488887.8745,68010.55719,-110,3548,90,Retrograde,35,0,0
Flight 1,488888.0145,67916.92539,-110,3548,90,Retrograde,35,0,0
Flight 1,488888.1545,67823.10624,-111,3548,90,Retrograde,35,0,-1
Flight 1,488888.2945,67729.09636,-110,3548,90,Retrograde,35,0,1
Flight 1,488888.4345,67634.89821,-110,3548,90,Retrograde,35,0,0
Flight 1,488888.5745,67540.51069,-110,3548,90,Retrograde,35,0,0
Flight 1,488888.7145,67445.93969,-110,3548,90,Retrograde,35,0,0
Flight 1,488888.8545,67351.17842,-110,3548,90,Retrograde,35,0,0
Flight 1,488888.9945,67256.22546,-111,3547,90,Retrograde,35,1,-1
Flight 1,488889.1345,67161.09088,-111,3547,90,Retrograde,35,0,0
Flight 1,488889.2745,67065.76509,-110,3547,90,Retrograde,35,0,1
Flight 1,488889.4145,66970.25244,-110,3548,90,Retrograde,35,-1,0
Flight 1,488889.5545,66874.55243,-110,3548,90,Retrograde,35,0,0
Flight 1,488889.6945,66778.6612,-110,3548,90,Retrograde,35,0,0
Flight 1,488889.8345,66682.58588,-110,3548,90,Retrograde,35,0,0
Flight 1,488889.9745,66586.3161,-110,3548,90,Retrograde,35,0,0
Flight 1,488890.1145,66489.86609,-110,3548,90,Retrograde,35,0,0
Flight 1,488890.2545,66393.22393,-110,3548,90,Retrograde,35,0,0
Flight 1,488890.3945,66296.39241,-110,3548,90,Retrograde,35,0,0
Flight 1,488890.5345,66199.37311,-110,3548,90,Retrograde,35,0,0
Flight 1,488890.6745,66102.16937,-110,3548,90,Retrograde,35,0,0
Flight 1,488890.8145,66004.77428,-110,3548,90,Retrograde,35,0,0
Flight 1,488890.9545,65907.18999,-110,3547,90,Retrograde,35,1,0
Flight 1,488891.0945,65809.42795,-110,3547,90,Retrograde,35,0,0
Flight 1,488891.2345,65711.47035,-110,3547,90,Retrograde,35,0,0
Flight 1,488891.3745,65613.32294,-110,3547,90,Retrograde,35,0,0
Flight 1,488891.5145,65514.98913,-110,3547,90,Retrograde,35,0,0
Flight 1,488891.6545,65416.46995,-110,3547,90,Retrograde,35,0,0
Flight 1,488891.7945,65317.75988,-110,3547,90,Retrograde,35,0,0
Flight 1,488891.9345,65218.85922,-110,3547,90,Retrograde,35,0,0
Flight 1,488892.0745,65119.77788,-110,3547,90,Retrograde,35,0,0
Flight 1,488892.2145,65020.50484,-110,3548,90,Retrograde,35,-1,0
Flight 1,488892.3545,64921.04152,-110,3548,90,Retrograde,35,0,0
Flight 1,488892.4945,64821.39179,-110,3548,90,Retrograde,35,0,0
Flight 1,488892.6345,64721.55379,-110,3547,90,Retrograde,35,1,0
Flight 1,488892.7745,64621.52735,-111,3547,90,Retrograde,35,0,-1
Flight 1,488892.9145,64521.3117,-110,3547,90,Retrograde,35,0,1
Flight 1,488893.0545,64420.91059,-110,3546,90,Retrograde,35,1,0
Flight 1,488893.1945,64320.3269,-110,3547,90,Retrograde,35,-1,0
Flight 1,488893.3345,64219.54473,-110,3547,90,Retrograde,35,0,0
Flight 1,488893.4745,64118.57909,-110,3547,90,Retrograde,35,0,0
Flight 1,488893.6145,64017.42857,-110,3547,90,Retrograde,35,0,0
Flight 1,488893.7545,63916.08669,-110,3547,90,Retrograde,35,0,0
Flight 1,488893.8945,63814.55699,-110,3547,90,Retrograde,35,0,0
Flight 1,488894.0345,63712.83995,-110,3547,90,Retrograde,35,0,0
Flight 1,488894.1745,63610.93943,-110,3547,90,Retrograde,35,0,0
Flight 1,488894.3145,63508.84381,-110,3547,90,Retrograde,35,0,0
Flight 1,488894.4545,63406.56459,-110,3547,90,Retrograde,35,0,0
Flight 1,488894.5945,63304.09182,-110,3547,90,Retrograde,35,0,0
Flight 1,488894.7345,63201.43649,-110,3547,90,Retrograde,35,0,0
Flight 1,488894.8745,63098.59041,-110,3547,90,Retrograde,35,0,0
Flight 1,488895.0145,62995.55592,-110,3546,90,Retrograde,35,1,0
Flight 1,488895.1545,62892.33315,-110,3546,90,Retrograde,35,0,0
Flight 1,488895.2945,62788.92254,-110,3547,90,Retrograde,35,-1,0
Flight 1,488895.4345,62685.32213,-110,3547,90,Retrograde,35,0,0
Flight 1,488895.5745,62581.53483,-110,3547,90,Retrograde,35,0,0
Flight 1,488895.7145,62477.55773,-110,3547,90,Retrograde,35,0,0
Flight 1,488895.8545,62373.39666,-110,3547,90,Retrograde,35,0,0
Flight 1,488895.9945,62269.04531,-110,3547,90,Retrograde,35,0,0
Flight 1,488896.1345,62164.50894,-110,3547,90,Retrograde,35,0,0
Flight 1,488896.2745,62059.77701,-110,3547,90,Retrograde,35,0,0
Flight 1,488896.4145,61954.86934,-110,3547,90,Retrograde,35,0,0
Flight 1,488896.5545,61849.76612,-110,3547,90,Retrograde,35,0,0
Flight 1,488896.6945,61744.47586,-110,3547,90,Retrograde,35,0,0
Flight 1,488896.8345,61638.99595,-110,3546,90,Retrograde,35,1,0
Flight 1,488896.9745,61533.33207,-110,3545,90,Retrograde,35,1,0
Flight 1,488897.1145,61427.47977,-110,3546,90,Retrograde,35,-1,0
Flight 1,488897.2545,61321.43671,-110,3546,90,Retrograde,35,0,0
Flight 1,488897.3945,61215.20679,-110,3546,90,Retrograde,35,0,0
Flight 1,488897.5345,61108.78811,-110,3546,90,Retrograde,35,0,0
Flight 1,488897.6745,61002.18873,-110,3546,90,Retrograde,35,0,0
Flight 1,488897.8145,60895.39813,-110,3546,90,Retrograde,35,0,0
Flight 1,488897.9545,60788.41682,-110,3546,90,Retrograde,35,0,0
Flight 1,488898.0945,60681.24997,-110,3546,90,Retrograde,35,0,0
Flight 1,488898.2345,60573.89393,-110,3546,90,Retrograde,35,0,0
Flight 1,488898.3745,60466.34992,-110,3546,90,Retrograde,35,0,0
Flight 1,488898.5145,60358.61718,-110,3546,90,Retrograde,35,0,0
Flight 1,488898.6545,60250.6994,-110,3546,90,Retrograde,35,0,0
Flight 1,488898.7945,60142.5938,-110,3546,90,Retrograde,35,0,0
Flight 1,488898.9345,60034.29653,-110,3546,90,Retrograde,35,0,0
Flight 1,488899.0745,59925.81379,-110,3545,90,Retrograde,35,1,0
Flight 1,488899.2145,59817.14073,-110,3545,90,Retrograde,35,0,0
Flight 1,488899.3545,59708.28467,-111,3545,90,Retrograde,35,0,-1
Flight 1,488899.4945,59599.23645,-110,3545,90,Retrograde,35,0,1
Flight 1,488899.6345,59490.00228,-110,3546,90,Retrograde,35,-1,0
Flight 1,488899.7745,59380.57488,-111,3546,90,Retrograde,35,0,-1
Flight 1,488899.9145,59270.9674,-110,3546,90,Retrograde,35,0,1
Flight 1,488900.0545,59161.17056,-110,3546,90,Retrograde,35,0,0
Flight 1,488900.1945,59051.18497,-110,3546,90,Retrograde,35,0,0
Flight 1,488900.3345,58941.0105,-110,3546,90,Retrograde,35,0,0
Flight 1,488900.4745,58830.64819,-110,3546,90,Retrograde,35,0,0
Flight 1,488900.6145,58720.10426,-110,3546,90,Retrograde,35,0,0
Flight 1,488900.7545,58609.36526,-110,3545,90,Retrograde,35,1,0
Flight 1,488900.8945,58498.43798,-110,3545,90,Retrograde,35,0,0
Flight 1,488901.0345,58387.32659,-110,3544,90,Retrograde,35,1,0
Flight 1,488901.1745,58276.02645,-110,3544,90,Retrograde,35,0,0
Flight 1,488901.3145,58164.54084,-111,3544,90,Retrograde,35,0,-1
Flight 1,488901.4545,58052.86401,-111,3545,90,Retrograde,35,-1,0
Flight 1,488901.5945,57941.00601,-110,3544,90,Retrograde,35,1,1
Flight 1,488901.7345,57828.95585,-110,3545,90,Retrograde,35,-1,0
Flight 1,488901.8745,57716.71975,-110,3545,90,Retrograde,35,0,0
Flight 1,488902.0145,57604.29335,-110,3545,90,Retrograde,35,0,0
Flight 1,488902.1545,57491.68101,-110,3545,90,Retrograde,35,0,0
Flight 1,488902.2945,57378.88222,-110,3545,90,Retrograde,35,0,0
Flight 1,488902.4345,57265.89854,-110,3545,90,Retrograde,35,0,0
Flight 1,488902.5745,57152.72213,-110,3545,90,Retrograde,35,0,0
Flight 1,488902.7145,57039.35836,-110,3545,90,Retrograde,35,0,0
Flight 1,488902.8545,56925.80568,-110,3544,90,Retrograde,35,1,0
Flight 1,488902.9945,56812.06518,-110,3543,90,Retrograde,35,1,0
Flight 1,488903.1345,56698.13981,-110,3543,90,Retrograde,35,0,0
Flight 1,488903.2745,56584.02647,-110,3544,90,Retrograde,35,-1,0
Flight 1,488903.4145,56469.7267,-110,3544,90,Retrograde,35,0,0
Flight 1,488903.5545,56355.23417,-110,3544,90,Retrograde,35,0,0
Flight 1,488903.6945,56240.55924,-110,3544,90,Retrograde,35,0,0
Flight 1,488903.8345,56125.69925,-110,3544,90,Retrograde,35,0,0
Flight 1,488903.9745,56010.64419,-111,3544,90,Retrograde,35,0,-1
Flight 1,488904.1145,55895.40411,-110,3544,90,Retrograde,35,0,1
Flight 1,488904.2545,55779.98055,-111,3544,90,Retrograde,35,0,-1
Flight 1,488904.3945,55664.36715,-111,3544,90,Retrograde,35,0,0
Flight 1,488904.5345,55548.57071,-110,3543,90,Retrograde,35,1,1
Flight 1,488904.6745,55432.58212,-110,3543,90,Retrograde,35,0,0
Flight 1,488904.8145,55316.40899,-110,3543,90,Retrograde,35,0,0
Flight 1,488904.9545,55200.04572,-110,3541,90,Retrograde,35,2,0
Flight 1,488905.0945,55083.5036,-110,3542,90,Retrograde,35,-1,0
Flight 1,488905.2345,54966.76499,-110,3542,90,Retrograde,35,0,0
Flight 1,488905.3745,54849.84275,-110,3542,90,Retrograde,35,0,0
Flight 1,488905.5145,54732.73515,-110,3542,90,Retrograde,35,0,0
Flight 1,488905.6545,54615.43819,-110,3542,90,Retrograde,35,0,0
Flight 1,488905.7945,54497.95869,-111,3542,90,Retrograde,35,0,-1
Flight 1,488905.9345,54380.28841,-110,3543,90,Retrograde,35,-1,1
Flight 1,488906.0745,54262.42832,-110,3542,90,Retrograde,35,1,0
Flight 1,488906.2145,54144.38131,-110,3543,90,Retrograde,35,-1,0
Flight 1,488906.3545,54026.14929,-110,3542,90,Retrograde,35,1,0
Flight 1,488906.4945,53907.7319,-110,3542,90,Retrograde,35,0,0
Flight 1,488906.6345,53789.12412,-110,3542,90,Retrograde,35,0,0
Flight 1,488906.7745,53670.33001,-110,3542,90,Retrograde,35,0,0
Flight 1,488906.9145,53551.34841,-110,3542,90,Retrograde,35,0,0
Flight 1,488907.0545,53432.17851,-110,3541,90,Retrograde,35,1,0
Flight 1,488907.1945,53312.82653,-110,3541,90,Retrograde,35,0,0
Flight 1,488907.3345,53193.28424,-110,3541,90,Retrograde,35,0,0
Flight 1,488907.4745,53073.5574,-110,3541,90,Retrograde,35,0,0
Flight 1,488907.6145,52953.63931,-110,3541,90,Retrograde,35,0,0
Flight 1,488907.7545,52833.53821,-110,3541,90,Retrograde,35,0,0
Flight 1,488907.8945,52713.24978,-110,3541,90,Retrograde,35,0,0
Flight 1,488908.0345,52592.7758,-110,3541,90,Retrograde,35,0,0
Flight 1,488908.1745,52472.11636,-109,3541,90,Retrograde,35,0,1
Flight 1,488908.3145,52351.26816,-110,3541,90,Retrograde,35,0,-1
Flight 1,488908.4545,52230.23198,-110,3541,90,Retrograde,35,0,0
Flight 1,488908.5945,52109.01572,-110,3541,90,Retrograde,35,0,0
Flight 1,488908.7345,51987.60622,-110,3540,90,Retrograde,35,1,0
Flight 1,488908.8745,51866.01121,-110,3540,90,Retrograde,35,0,0
Flight 1,488909.0145,51744.2298,-110,3539,90,Retrograde,35,1,0
Flight 1,488909.1545,51622.26393,-110,3539,90,Retrograde,35,0,0
Flight 1,488909.2945,51500.11643,-110,3539,90,Retrograde,35,0,0
Flight 1,488909.4345,51377.77432,-110,3539,90,Retrograde,35,0,0
Flight 1,488909.5745,51255.24807,-110,3539,90,Retrograde,35,0,0
Flight 1,488909.7145,51132.53789,-110,3539,90,Retrograde,35,0,0
Flight 1,488909.8545,51009.63881,-110,3539,90,Retrograde,35,0,0
Flight 1,488909.9945,50886.55526,-110,3539,90,Retrograde,35,0,0
Flight 1,488910.1345,50763.28811,-110,3539,90,Retrograde,35,0,0
Flight 1,488910.2745,50639.8322,-110,3539,90,Retrograde,35,0,0
Flight 1,488910.4145,50516.19217,-110,3539,90,Retrograde,35,0,0
Flight 1,488910.5545,50392.36338,-110,3539,90,Retrograde,35,0,0
Flight 1,488910.6945,50268.35622,-110,3539,90,Retrograde,35,0,0
Flight 1,488910.8345,50144.15596,-110,3538,90,Retrograde,35,1,0
Flight 1,488910.9745,50019.77114,-110,3536,90,Retrograde,35,2,0
Flight 1,488911.1145,49895.19938,-110,3537,90,Retrograde,35,-1,0
Flight 1,488911.2545,49770.44215,-110,3537,90,Retrograde,35,0,0
Flight 1,488911.3945,49645.49799,-110,3537,90,Retrograde,35,0,0
Flight 1,488911.5345,49520.37364,-109,3537,90,Retrograde,35,0,1
Flight 1,488911.6745,49395.06097,-109,3537,90,Retrograde,35,0,0
Flight 1,488911.8145,49269.56462,-110,3537,90,Retrograde,35,0,-1
Flight 1,488911.9545,49143.88,-110,3537,90,Retrograde,35,0,0
Flight 1,488912.0945,49018.0108,-109,3537,90,Retrograde,35,0,1
Flight 1,488912.2345,48891.95856,-109,3537,90,Retrograde,35,0,0
Flight 1,488912.3745,48765.72377,-110,3537,90,Retrograde,35,0,-1
Flight 1,488912.5145,48639.30238,-110,3536,90,Retrograde,35,1,0
Flight 1,488912.6545,48512.69316,-109,3536,90,Retrograde,35,0,1
Flight 1,488912.7945,48385.89799,-110,3536,90,Retrograde,35,0,-1
Flight 1,488912.9345,48258.91682,-109,3535,90,Retrograde,35,1,1
Flight 1,488913.0745,48131.75836,-109,3534,90,Retrograde,35,1,0
Flight 1,488913.2145,48004.4105,-109,3535,90,Retrograde,35,-1,0
Flight 1,488913.3545,47876.87575,-109,3535,90,Retrograde,35,0,0
Flight 1,488913.4945,47749.16185,-109,3535,90,Retrograde,35,0,0
Flight 1,488913.6345,47621.26333,-109,3534,90,Retrograde,35,1,0
Flight 1,488913.7745,47493.17934,-109,3534,90,Retrograde,35,0,0
Flight 1,488913.9145,47364.91616,-109,3534,90,Retrograde,35,0,0
Flight 1,488914.0545,47236.46454,-109,3534,90,Retrograde,35,0,0
Flight 1,488914.1945,47107.82786,-109,3534,90,Retrograde,35,0,0
Flight 1,488914.3345,46979.00908,-109,3534,90,Retrograde,35,0,0
Flight 1,488914.4745,46850.00362,-109,3534,90,Retrograde,35,0,0
Flight 1,488914.6145,46720.81628,-109,3534,90,Retrograde,35,0,0
Flight 1,488914.7545,46591.44435,-109,3533,90,Retrograde,35,1,0
Flight 1,488914.8945,46461.88598,-109,3533,90,Retrograde,35,0,0
Flight 1,488915.0345,46332.14759,-109,3531,90,Retrograde,35,2,0
Flight 1,488915.1745,46202.22594,-108,3532,90,Retrograde,35,-1,1
Flight 1,488915.3145,46072.11992,-108,3532,90,Retrograde,35,0,0
Flight 1,488915.4545,45941.83636,-108,3532,90,Retrograde,35,0,0
Flight 1,488915.5945,45811.3659,-108,3531,90,Retrograde,35,1,0
Flight 1,488915.7345,45680.7113,-108,3532,90,Retrograde,35,-1,0
Flight 1,488915.8745,45549.87437,-108,3531,90,Retrograde,35,1,0
Flight 1,488916.0145,45418.85578,-108,3531,90,Retrograde,35,0,0
Flight 1,488916.1545,45287.65671,-108,3531,90,Retrograde,35,0,0
Flight 1,488916.2945,45156.27576,-108,3531,90,Retrograde,35,0,0
Flight 1,488916.4345,45024.70881,-108,3531,90,Retrograde,35,0,0
Flight 1,488916.5745,44892.96232,-108,3530,90,Retrograde,35,1,0
Flight 1,488916.7145,44761.02982,-108,3530,90,Retrograde,35,0,0
Flight 1,488916.8545,44628.91955,-108,3529,90,Retrograde,35,1,0
Flight 1,488916.9945,44496.62855,-108,3528,90,Retrograde,35,1,0
Flight 1,488917.1345,44364.15659,-107,3528,90,Retrograde,35,0,1
Flight 1,488917.2745,44231.50273,-108,3528,90,Retrograde,35,0,-1
Flight 1,488917.4145,44098.66546,-107,3528,90,Retrograde,35,0,1
Flight 1,488917.5545,43965.647,-107,3528,90,Retrograde,35,0,0
Flight 1,488917.6945,43832.44709,-107,3528,90,Retrograde,35,0,0
Flight 1,488917.8345,43699.06941,-107,3528,90,Retrograde,35,0,0
Flight 1,488917.9745,43565.51532,-107,3528,90,Retrograde,35,0,0
Flight 1,488918.1145,43431.77688,-106,3527,90,Retrograde,35,1,1
Flight 1,488918.2545,43297.85885,-106,3527,90,Retrograde,35,0,0
Flight 1,488918.3945,43163.76058,-106,3527,90,Retrograde,35,0,0
Flight 1,488918.5345,43029.48426,-106,3527,90,Retrograde,35,0,0
Flight 1,488918.6745,42895.02451,-106,3526,90,Retrograde,35,1,0
Flight 1,488918.8145,42760.38698,-106,3526,90,Retrograde,35,0,0
Flight 1,488918.9545,42625.57596,-106,3524,90,Retrograde,35,2,0
Flight 1,488919.0945,42490.5813,-105,3524,90,Retrograde,35,0,1
Flight 1,488919.2345,42355.4082,-105,3524,90,Retrograde,35,0,0
Flight 1,488919.3745,42220.06046,-105,3524,90,Retrograde,35,0,0
Flight 1,488919.5145,42084.53269,-105,3524,90,Retrograde,35,0,0
Flight 1,488919.6545,41948.82512,-104,3524,90,Retrograde,35,0,1
Flight 1,488919.7945,41812.94136,-104,3524,90,Retrograde,35,0,0
Flight 1,488919.9345,41676.88071,-104,3524,90,Retrograde,35,0,0
Flight 1,488920.0745,41540.64437,-104,3523,90,Retrograde,35,1,0
Flight 1,488920.2145,41404.22893,-104,3523,90,Retrograde,35,0,0
Flight 1,488920.3545,41267.6383,-104,3523,90,Retrograde,35,0,0
Flight 1,488920.4945,41130.86886,-104,3522,90,Retrograde,35,1,0
Flight 1,488920.6345,40993.92438,-104,3522,90,Retrograde,35,0,0
Flight 1,488920.7745,40856.8018,-103,3521,90,Retrograde,35,1,1
Flight 1,488920.9145,40719.50692,-103,3521,90,Retrograde,35,0,0
Flight 1,488921.0545,40582.0346,-103,3519,90,Retrograde,35,2,0
Flight 1,488921.1945,40444.38703,-103,3519,90,Retrograde,35,0,0
Flight 1,488921.3345,40306.56833,-102,3519,90,Retrograde,35,0,1
Flight 1,488921.4745,40168.57102,-102,3519,90,Retrograde,35,0,0
Flight 1,488921.6145,40030.3994,-102,3519,90,Retrograde,35,0,0
Flight 1,488921.7545,39892.05691,-102,3518,90,Retrograde,35,1,0
Flight 1,488921.8945,39753.5377,-102,3518,90,Retrograde,35,0,0
Flight 1,488922.0345,39614.84608,-101,3518,90,Retrograde,35,0,1
Flight 1,488922.1745,39475.98569,-101,3518,90,Retrograde,35,0,0
Flight 1,488922.3145,39336.94835,-101,3517,90,Retrograde,35,1,0
Flight 1,488922.4545,39197.7396,-100,3517,90,Retrograde,35,0,1
Flight 1,488922.5945,39058.36015,-100,3516,90,Retrograde,35,1,0
Flight 1,488922.7345,38918.81,-100,3515,90,Retrograde,35,1,0
Flight 1,488922.8745,38779.08867,-100,3515,90,Retrograde,35,0,0
Flight 1,488923.0145,38639.19927,-99,3513,90,Retrograde,25,2,1
Flight 1,488923.1545,38499.13505,-99,3513,90,Retrograde,25,0,0
Flight 1,488923.2945,38358.903,-98,3513,90,Retrograde,25,0,1
Flight 1,488923.4345,38218.50381,-98,3513,90,Retrograde,25,0,0
Flight 1,488923.5745,38077.93821,-97,3512,90,Retrograde,25,1,1
Flight 1,488923.7145,37937.20213,-97,3512,90,Retrograde,25,0,0
Flight 1,488923.8545,37796.29968,-97,3512,90,Retrograde,25,0,0
Flight 1,488923.9945,37655.22813,-97,3511,90,Retrograde,25,1,0
Flight 1,488924.1345,37513.99544,-96,3511,90,Retrograde,25,0,1
Flight 1,488924.2745,37372.59512,-96,3510,90,Retrograde,25,1,0
Flight 1,488924.4145,37231.02991,-96,3510,90,Retrograde,25,0,0
Flight 1,488924.5545,37089.29681,-96,3509,90,Retrograde,25,1,0
Flight 1,488924.6945,36947.40404,-95,3508,90,Retrograde,25,1,1
Flight 1,488924.8345,36805.34354,-95,3507,90,Retrograde,25,1,0
Flight 1,488924.9745,36663.12243,-95,3505,90,Retrograde,25,2,0
Flight 1,488925.1145,36520.74116,-94,3505,90,Retrograde,25,0,1
Flight 1,488925.2545,36378.19556,-94,3505,90,Retrograde,25,0,0
Flight 1,488925.3945,36235.48836,-94,3504,90,Retrograde,25,1,0
Flight 1,488925.5345,36092.62216,-93,3504,90,Retrograde,25,0,1
Flight 1,488925.6745,35949.59596,-93,3503,90,Retrograde,25,1,0
Flight 1,488925.8145,35806.40883,-93,3503,90,Retrograde,25,0,0
Flight 1,488925.9545,35663.06434,-93,3502,90,Retrograde,25,1,0
Flight 1,488926.0945,35519.56572,-92,3502,90,Retrograde,25,0,1
Flight 1,488926.2345,35375.90759,-92,3501,90,Retrograde,25,1,0
Flight 1,488926.3745,35232.09116,-92,3500,90,Retrograde,25,1,0
Flight 1,488926.5145,35088.11962,-91,3499,90,Retrograde,25,1,1
Flight 1,488926.6545,34943.99186,-91,3498,90,Retrograde,25,1,0
Flight 1,488926.7945,34799.71079,-91,3497,90,Retrograde,25,1,0
Flight 1,488926.9345,34655.27577,-90,3496,90,Retrograde,25,1,1
Flight 1,488927.0745,34510.69056,-90,3494,90,Retrograde,25,2,0
Flight 1,488927.2145,34365.95183,-90,3494,90,Retrograde,25,0,0
Flight 1,488927.3545,34221.06292,-89,3493,90,Retrograde,25,1,1
Flight 1,488927.4945,34076.02504,-89,3492,90,Retrograde,25,1,0
Flight 1,488927.6345,33930.83843,-88,3492,90,Retrograde,25,0,1
Flight 1,488927.7745,33785.50255,-88,3491,90,Retrograde,25,1,0
Flight 1,488927.9145,33640.02011,-87,3490,90,Retrograde,25,1,1
Flight 1,488928.0545,33494.39394,-87,3489,90,Retrograde,25,1,0
Flight 1,488928.1945,33348.61976,-86,3488,90,Retrograde,25,1,1
Flight 1,488928.3345,33202.703,-86,3487,90,Retrograde,25,1,0
Flight 1,488928.4745,33056.64297,-86,3486,90,Retrograde,25,1,0
Flight 1,488928.6145,32910.4431,-85,3484,90,Retrograde,25,2,1
Flight 1,488928.7545,32764.10159,-85,3483,90,Retrograde,25,1,0
Flight 1,488928.8945,32617.62161,-84,3482,90,Retrograde,25,1,1
Flight 1,488929.0345,32471.00291,-84,3479,90,Retrograde,25,3,0
Flight 1,488929.1745,32324.24962,-83,3479,90,Retrograde,25,0,1
Flight 1,488929.3145,32177.35776,-83,3478,90,Retrograde,25,1,0
Flight 1,488929.4545,32030.33368,-82,3477,90,Retrograde,25,1,1
Flight 1,488929.5945,31883.17854,-82,3476,90,Retrograde,25,1,0
Flight 1,488929.7345,31735.88844,-81,3475,90,Retrograde,25,1,1
Flight 1,488929.8745,31588.46967,-81,3474,90,Retrograde,25,1,0
Flight 1,488930.0145,31440.9227,-80,3472,90,Retrograde,25,2,1
Flight 1,488930.1545,31293.24966,-79,3471,90,Retrograde,25,1,1
Flight 1,488930.2945,31145.44862,-79,3470,90,Retrograde,25,1,0
Flight 1,488930.4345,30997.52416,-78,3468,90,Retrograde,25,2,1
Flight 1,488930.5745,30849.47672,-78,3467,90,Retrograde,25,1,0
Flight 1,488930.7145,30701.30777,-77,3465,90,Retrograde,25,2,1
Flight 1,488930.8545,30553.01939,-77,3463,90,Retrograde,25,2,0
Flight 1,488930.9945,30404.61429,-76,3462,90,Retrograde,25,1,1
Flight 1,488931.1345,30256.0953,-76,3460,90,Retrograde,25,2,0
Flight 1,488931.2745,30107.46097,-75,3459,90,Retrograde,25,1,1
Flight 1,488931.4145,29958.71588,-74,3458,90,Retrograde,25,1,1
Flight 1,488931.5545,29809.8595,-74,3456,90,Retrograde,25,2,0
Flight 1,488931.6945,29660.89859,-73,3455,90,Retrograde,25,1,1
Flight 1,488931.8345,29511.82612,-72,3453,90,Retrograde,25,2,1
Flight 1,488931.9745,29362.65319,-71,3452,90,Retrograde,25,1,1
Flight 1,488932.1145,29213.37757,-71,3450,90,Retrograde,25,2,0
Flight 1,488932.2545,29064.00627,-70,3448,90,Retrograde,25,2,1
Flight 1,488932.3945,28914.53512,-69,3446,90,Retrograde,25,2,1
Flight 1,488932.5345,28764.96778,-69,3444,90,Retrograde,25,2,0
Flight 1,488932.6745,28615.30582,-68,3442,90,Retrograde,25,2,1
Flight 1,488932.8145,28465.55435,-67,3440,90,Retrograde,25,2,1
Flight 1,488932.9545,28315.71113,-66,3438,90,Retrograde,25,2,1
Flight 1,488933.0945,28165.78559,-66,3436,90,Retrograde,25,2,0
Flight 1,488933.2345,28015.77841,-65,3434,90,Retrograde,25,2,1
Flight 1,488933.3745,27865.68765,-64,3432,90,Retrograde,25,2,1
Flight 1,488933.5145,27715.52074,-63,3430,90,Retrograde,25,2,1
Flight 1,488933.6545,27565.27787,-63,3429,90,Retrograde,25,1,0
Flight 1,488933.7945,27414.96463,-62,3426,90,Retrograde,25,3,1
Flight 1,488933.9345,27264.57925,-61,3424,90,Retrograde,25,2,1
Flight 1,488934.0745,27114.12817,-60,3422,90,Retrograde,25,2,1
Flight 1,488934.2145,26963.6141,-59,3420,90,Retrograde,25,2,1
Flight 1,488934.3545,26813.03891,-58,3418,90,Retrograde,25,2,1
Flight 1,488934.4945,26662.4052,-57,3415,90,Retrograde,25,3,1
Flight 1,488934.6345,26511.72266,-57,3413,90,Retrograde,25,2,0
Flight 1,488934.7745,26360.98582,-56,3410,90,Retrograde,25,3,1
Flight 1,488934.9145,26210.20242,-54,3407,90,Retrograde,25,3,2
Flight 1,488935.0545,26059.37439,-54,3404,90,Retrograde,25,3,0
Flight 1,488935.1945,25908.50915,-53,3402,90,Retrograde,25,2,1
Flight 1,488935.3345,25757.60621,-52,3400,90,Retrograde,25,2,1
Flight 1,488935.4745,25606.66981,-51,3397,90,Retrograde,25,3,1
Flight 1,488935.6145,25455.70861,-50,3395,90,Retrograde,25,2,1
Flight 1,488935.7545,25304.72021,-49,3392,90,Retrograde,20,3,1
Flight 1,488935.8945,25153.71007,-48,3390,90,Retrograde,20,2,1
Flight 1,488936.0345,25002.68776,-47,3387,90,Retrograde,20,3,1
Flight 1,488936.1745,24851.6543,-46,3384,90,Retrograde,20,3,1
Flight 1,488936.3145,24700.6113,-45,3381,90,Retrograde,20,3,1
Flight 1,488936.4545,24549.56864,-44,3378,90,Retrograde,20,3,1
Flight 1,488936.5945,24398.52473,-43,3374,90,Retrograde,20,4,1
Flight 1,488936.7345,24247.48723,-42,3372,90,Retrograde,20,2,1
Flight 1,488936.8745,24096.4594,-41,3368,90,Retrograde,20,4,1
Flight 1,488937.0145,23945.44787,-40,3364,90,Retrograde,20,4,1
Flight 1,488937.1545,23794.45592,-39,3361,90,Retrograde,20,3,1
Flight 1,488937.2945,23643.49129,-38,3358,90,Retrograde,20,3,1
Flight 1,488937.4345,23492.56004,-37,3354,90,Retrograde,20,4,1
Flight 1,488937.5745,23341.66555,-36,3351,90,Retrograde,20,3,1
Flight 1,488937.7145,23190.81264,-35,3348,90,Retrograde,20,3,1
Flight 1,488937.8545,23040.00833,-34,3344,90,Retrograde,20,4,1
Flight 1,488937.9945,22889.25767,-33,3341,90,Retrograde,20,3,1
Flight 1,488938.1345,22738.56426,-33,3336,90,Retrograde,20,5,0
Flight 1,488938.2745,22587.9377,-31,3333,90,Retrograde,20,3,2
Flight 1,488938.4145,22437.38527,-30,3328,90,Retrograde,20,5,1
Flight 1,488938.5545,22286.91081,-30,3325,90,Retrograde,20,3,0
Flight 1,488938.6945,22136.51827,-28,3320,90,Retrograde,20,5,2
Flight 1,488938.8345,21986.21963,-28,3316,90,Retrograde,20,4,0
Flight 1,488938.9745,21836.01914,-26,3311,90,Retrograde,20,5,2
Flight 1,488939.1145,21685.92056,-25,3306,90,Retrograde,20,5,1
Flight 1,488939.2545,21535.93717,-25,3302,90,Retrograde,20,4,0
Flight 1,488939.3945,21386.07131,-24,3298,90,Retrograde,20,4,1
Flight 1,488939.5345,21236.33135,-22,3293,90,Retrograde,20,5,2
Flight 1,488939.6745,21086.73096,-21,3289,90,Retrograde,20,4,1
Flight 1,488939.8145,20937.26927,-20,3284,90,Retrograde,20,5,1
Flight 1,488939.9545,20787.95515,-19,3280,90,Retrograde,15,4,1
Flight 1,488940.0945,20638.79676,-18,3275,90,Retrograde,15,5,1
Flight 1,488940.2345,20489.80728,-17,3271,90,Retrograde,15,4,1
Flight 1,488940.3745,20340.99072,-16,3265,90,Retrograde,15,6,1
Flight 1,488940.5145,20192.35534,-15,3259,90,Retrograde,15,6,1
Flight 1,488940.6545,20043.91174,-15,3255,90,Retrograde,15,4,0
Flight 1,488940.7945,19895.66782,-13,3248,90,Retrograde,15,7,2
Flight 1,488940.9345,19747.6313,-13,3243,90,Retrograde,15,5,0
Flight 1,488941.0745,19599.81174,-12,3237,90,Retrograde,15,6,1
Flight 1,488941.2145,19452.21891,-11,3231,90,Retrograde,15,6,1
Flight 1,488941.3545,19304.86279,-11,3226,90,Retrograde,15,5,0
Flight 1,488941.4945,19157.75309,-10,3219,90,Retrograde,15,7,1
Flight 1,488941.6345,19010.89868,-9,3215,90,Retrograde,10,4,1
Flight 1,488941.7745,18864.30903,-8,3208,90,Retrograde,10,7,1
Flight 1,488941.9145,18717.99398,-7,3202,90,Retrograde,10,6,1
Flight 1,488942.0545,18571.96271,-7,3196,90,Retrograde,10,6,0
Flight 1,488942.1945,18426.22796,-6,3189,90,Retrograde,10,7,1
Flight 1,488942.3345,18280.79752,-6,3182,90,Retrograde,10,7,0
Flight 1,488942.4745,18135.68465,-5,3176,90,Retrograde,10,6,1
Flight 1,488942.6145,17990.89719,-5,3169,90,Retrograde,10,7,0
Flight 1,488942.7545,17846.44761,-5,3163,90,Retrograde,10,6,0
Flight 1,488942.8945,17702.34452,-4,3154,90,Retrograde,10,9,1
Flight 1,488943.0345,17558.59888,-4,3147,90,Retrograde,10,7,0
Flight 1,488943.1745,17415.22269,-4,3139,90,Retrograde,10,8,0
Flight 1,488943.3145,17272.22574,-3,3132,90,Retrograde,0,7,1
Flight 1,488943.4545,17129.62002,-3,3124,90,Retrograde,0,8,0
Flight 1,488943.5945,16987.41721,-3,3117,90,Retrograde,0,7,0
Flight 1,488943.7345,16845.62701,-2,3109,90,Retrograde,0,8,1
Flight 1,488943.8745,16704.26036,-3,3101,90,Retrograde,0,8,-1
Flight 1,488944.0145,16563.32668,-3,3095,90,Retrograde,0,6,0
Flight 1,488944.1545,16422.83636,-3,3085,90,Retrograde,0,10,0
Flight 1,488944.2945,16282.80169,-3,3078,90,Retrograde,0,7,0
Flight 1,488944.4345,16143.23083,-4,3070,90,Retrograde,10,8,-1
Flight 1,488944.5745,16004.13569,-4,3062,90,Retrograde,10,8,0
Flight 1,488944.7145,15865.52796,-5,3052,90,Retrograde,10,10,-1
Flight 1,488944.8545,15727.41953,-5,3043,90,Retrograde,10,9,0
Flight 1,488944.9945,15589.81971,-6,3034,90,Retrograde,10,9,-1
Flight 1,488945.1345,15452.73887,-6,3024,90,Retrograde,10,10,0
Flight 1,488945.2745,15316.18525,-6,3015,90,Retrograde,10,9,0
Flight 1,488945.4145,15180.17134,-7,3005,90,Retrograde,10,10,-1
Flight 1,488945.5545,15044.7057,-7,2997,90,Retrograde,10,8,0
Flight 1,488945.6945,14909.79621,-7,2987,90,Retrograde,10,10,0
Flight 1,488945.8345,14775.45462,-8,2978,90,Retrograde,10,9,-1
Flight 1,488945.9745,14641.68722,-8,2968,90,Retrograde,10,10,0
Flight 1,488946.1145,14508.5049,-9,2959,90,Retrograde,10,9,-1
Flight 1,488946.2545,14375.91627,-9,2951,90,Retrograde,10,8,0
Flight 1,488946.3945,14243.92956,-9,2940,90,Retrograde,10,11,0
Flight 1,488946.5345,14112.5528,-9,2932,90,Retrograde,10,8,0
Flight 1,488946.6745,13981.79393,-10,2920,90,Retrograde,15,12,-1
Flight 1,488946.8145,13851.66018,-10,2911,90,Retrograde,15,9,0
Flight 1,488946.9545,13722.16191,-10,2902,90,Retrograde,15,9,0
Flight 1,488947.0945,13593.30303,-11,2891,90,Retrograde,15,11,-1
Flight 1,488947.2345,13465.09316,-11,2882,90,Retrograde,15,9,0
Flight 1,488947.3745,13337.54024,-11,2870,90,Retrograde,15,12,0
Flight 1,488947.5145,13210.64945,-12,2860,90,Retrograde,15,10,-1
Flight 1,488947.6545,13084.42853,-12,2851,90,Retrograde,15,9,0
Flight 1,488947.7945,12958.88355,-13,2840,90,Retrograde,15,11,-1
Flight 1,488947.9345,12834.02016,-13,2831,90,Retrograde,15,9,0
Flight 1,488948.0745,12709.84765,-13,2822,90,Retrograde,15,9,0
Flight 1,488948.2145,12586.36878,-14,2811,90,Retrograde,15,11,-1
Flight 1,488948.3545,12463.59144,-14,2801,90,Retrograde,15,10,0
Flight 1,488948.4945,12341.52159,-14,2792,90,Retrograde,15,9,0
Flight 1,488948.6345,12220.16282,-15,2781,90,Retrograde,15,11,-1
Flight 1,488948.7745,12099.52399,-15,2770,90,Retrograde,15,11,0
Flight 1,488948.9145,11979.60613,-16,2761,90,Retrograde,15,9,-1
Flight 1,488949.0545,11860.41571,-16,2749,90,Retrograde,15,12,0
Flight 1,488949.1945,11741.95802,-17,2740,90,Retrograde,15,9,-1
Flight 1,488949.3345,11624.23561,-17,2730,90,Retrograde,15,10,0
Flight 1,488949.4745,11507.25246,-18,2719,90,Retrograde,15,11,-1
Flight 1,488949.6145,11391.01396,-18,2707,90,Retrograde,15,12,0
Flight 1,488949.7545,11275.52405,-19,2698,90,Retrograde,15,9,-1
Flight 1,488949.8945,11160.78354,-19,2687,90,Retrograde,15,11,0
Flight 1,488950.0345,11046.79693,-20,2675,90,Retrograde,20,12,-1
Flight 1,488950.1745,10933.56645,-20,2665,90,Retrograde,20,10,0
Flight 1,488950.3145,10821.09618,-21,2655,90,Retrograde,20,10,-1
Flight 1,488950.4545,10709.38628,-21,2644,90,Retrograde,20,11,0
Flight 1,488950.5945,10598.44021,-21,2634,90,Retrograde,20,10,0
Flight 1,488950.7345,10488.25875,-22,2624,90,Retrograde,20,10,-1
Flight 1,488950.8745,10378.844,-23,2613,90,Retrograde,20,11,-1
Flight 1,488951.0145,10270.19593,-23,2604,90,Retrograde,20,9,0
Flight 1,488951.1545,10162.31603,-24,2592,90,Retrograde,20,12,-1
Flight 1,488951.2945,10055.20651,-24,2583,90,Retrograde,20,9,0
Flight 1,488951.4345,9948.866707,-25,2571,90,Retrograde,20,12,-1
Flight 1,488951.5745,9843.297555,-26,2560,90,Retrograde,20,11,-1
Flight 1,488951.7145,9738.499483,-26,2550,90,Retrograde,20,10,0
Flight 1,488951.8545,9634.472318,-27,2539,90,Retrograde,20,11,-1
Flight 1,488951.9945,9531.214689,-27,2528,90,Retrograde,20,11,0
Flight 1,488952.1345,9428.726617,-28,2518,90,Retrograde,20,10,-1
Flight 1,488952.2745,9327.006828,-28,2508,90,Retrograde,20,10,0
Flight 1,488952.4145,9226.055738,-29,2498,90,Retrograde,20,10,-1
Flight 1,488952.5545,9125.871789,-30,2489,90,Retrograde,20,9,-1
Flight 1,488952.6945,9026.453529,-31,2478,90,Retrograde,20,11,-1
Flight 1,488952.8345,8927.798619,-31,2469,90,Retrograde,20,9,0
Flight 1,488952.9745,8829.90676,-31,2459,90,Retrograde,20,10,0
Flight 1,488953.1145,8732.775048,-32,2448,90,Retrograde,20,11,-1
Flight 1,488953.2545,8636.402183,-33,2438,90,Retrograde,20,10,-1
Flight 1,488953.3945,8540.785023,-33,2430,90,Retrograde,20,8,0
Flight 1,488953.5345,8445.921778,-34,2418,90,Retrograde,20,12,-1
Flight 1,488953.6745,8351.811023,-34,2410,90,Retrograde,20,8,0
Flight 1,488953.8145,8258.450782,-35,2399,90,Retrograde,20,11,-1
Flight 1,488953.9545,8165.838482,-35,2390,90,Retrograde,20,9,0
Flight 1,488954.0945,8073.970365,-35,2379,90,Retrograde,20,11,0
Flight 1,488954.2345,7982.845211,-35,2369,90,Retrograde,20,10,0
Flight 1,488954.3745,7892.460455,-34,2360,90,Retrograde,20,9,1
Flight 1,488954.5145,7802.811563,-34,2351,90,Retrograde,20,9,0
Flight 1,488954.6545,7713.895495,-34,2342,90,Retrograde,20,9,0
Flight 1,488954.7945,7625.707612,-33,2332,90,Retrograde,20,10,1
Flight 1,488954.9345,7538.24279,-32,2325,90,Retrograde,20,7,1
Flight 1,488955.0745,7451.498511,-31,2315,90,Retrograde,20,10,1
Flight 1,488955.2145,7365.468139,-31,2306,90,Retrograde,20,9,0
Flight 1,488955.3545,7280.147793,-30,2297,90,Retrograde,20,9,1
Flight 1,488955.4945,7195.532415,-29,2289,90,Retrograde,20,8,1
Flight 1,488955.6345,7111.617211,-28,2281,90,Retrograde,20,8,1
Flight 1,488955.7745,7028.397077,-27,2272,90,Retrograde,20,9,1
Flight 1,488955.9145,6945.867719,-27,2263,90,Retrograde,20,9,0
Flight 1,488956.0545,6864.023672,-26,2255,90,Retrograde,20,8,1
Flight 1,488956.1945,6782.861617,-25,2248,90,Retrograde,20,7,1
Flight 1,488956.3345,6702.375718,-24,2238,90,Retrograde,20,10,1
Flight 1,488956.4745,6622.561945,-23,2231,90,Retrograde,20,7,1
Flight 1,488956.6145,6543.415437,-23,2224,90,Retrograde,20,7,0
Flight 1,488956.7545,6464.930525,-22,2215,90,Retrograde,20,9,1
Flight 1,488956.8945,6387.104425,-21,2209,90,Retrograde,20,6,1
Flight 1,488957.0345,6309.931906,-20,2201,90,Retrograde,20,8,1
Flight 1,488957.1745,6233.409055,-19,2193,90,Retrograde,15,8,1
Flight 1,488957.3145,6157.530916,-19,2185,90,Retrograde,15,8,0
Flight 1,488957.4545,6082.293109,-18,2178,90,Retrograde,15,7,1
Flight 1,488957.5945,6007.692106,-18,2171,90,Retrograde,15,7,0
Flight 1,488957.7345,5933.721913,-17,2162,90,Retrograde,15,9,1
Flight 1,488957.8745,5860.3785,-17,2155,90,Retrograde,15,7,0
Flight 1,488958.0145,5787.655937,-16,2147,90,Retrograde,15,8,1
Flight 1,488958.1545,5715.552184,-16,2141,90,Retrograde,15,6,0
Flight 1,488958.2945,5644.060894,-16,2132,90,Retrograde,15,9,0
Flight 1,488958.4345,5573.17687,-15,2126,90,Retrograde,15,6,1
Flight 1,488958.5745,5502.897647,-15,2117,90,Retrograde,15,9,0
Flight 1,488958.7145,5433.216794,-15,2111,90,Retrograde,15,6,0
Flight 1,488958.8545,5364.129848,-15,2105,90,Retrograde,15,6,0
Flight 1,488958.9945,5295.632097,-14,2097,90,Retrograde,15,8,1
Flight 1,488959.1345,5227.718474,-14,2091,90,Retrograde,15,6,0
Flight 1,488959.2745,5160.384088,-14,2085,90,Retrograde,15,6,0
Flight 1,488959.4145,5093.624263,-14,2079,90,Retrograde,15,6,0
Flight 1,488959.5545,5027.434195,-13,2071,90,Retrograde,15,8,1
Flight 1,488959.6945,4961.808397,-13,2066,90,Retrograde,15,5,0
Flight 1,488959.8345,4896.742185,-13,2058,90,Retrograde,15,8,0
Flight 1,488959.9745,4832.229639,-12,2052,90,Retrograde,15,6,1
Flight 1,488960.1145,4768.265761,-12,2046,90,Retrograde,15,6,0
Flight 1,488960.2545,4704.845475,-12,2039,90,Retrograde,15,7,0
Flight 1,488960.3945,4641.96255,-12,2033,90,Retrograde,15,6,0
Flight 1,488960.5345,4579.612086,-11,2026,90,Retrograde,15,7,1
Flight 1,488960.6745,4517.788221,-11,2020,90,Retrograde,15,6,0
Flight 1,488960.8145,4456.485838,-11,2015,90,Retrograde,15,5,0
Flight 1,488960.9545,4395.698967,-10,2009,90,Retrograde,15,6,1
Flight 1,488961.0945,4335.422325,-10,2005,90,Retrograde,15,4,0
Flight 1,488961.2345,4275.649962,-10,2000,90,Retrograde,15,5,0
Flight 1,488961.3745,4216.3762,-9,1994,90,Retrograde,10,6,1
Flight 1,488961.5145,4157.596164,-9,1989,90,Retrograde,10,5,0
Flight 1,488961.6545,4099.30413,-9,1984,90,Retrograde,10,5,0
Flight 1,488961.7945,4041.493729,-8,1978,90,Retrograde,10,6,1
Flight 1,488961.9345,3984.159072,-8,1973,90,Retrograde,10,5,0
Flight 1,488962.0745,3927.294912,-7,1969,90,Retrograde,10,4,1
Flight 1,488962.2145,3870.89542,-7,1963,90,Retrograde,10,6,0
Flight 1,488962.3545,3814.954959,-7,1958,90,Retrograde,10,5,0
Flight 1,488962.4945,3759.468386,-6,1954,90,Retrograde,10,4,1
Flight 1,488962.6345,3704.430404,-6,1948,90,Retrograde,10,6,0
Flight 1,488962.7745,3649.835667,-6,1943,90,Retrograde,10,5,0
Flight 1,488962.9145,3595.678645,-6,1939,90,Retrograde,10,4,0
Flight 1,488963.0545,3541.954541,-6,1935,90,Retrograde,10,4,0
Flight 1,488963.1945,3488.657615,-5,1931,90,Retrograde,10,4,1
Flight 1,488963.3345,3435.782289,-5,1926,90,Retrograde,10,5,0
Flight 1,488963.4745,3383.323744,-5,1922,90,Retrograde,10,4,0
Flight 1,488963.6145,3331.276606,-5,1918,90,Retrograde,10,4,0
Flight 1,488963.7545,3279.635087,-5,1914,90,Retrograde,10,4,0
Flight 1,488963.8945,3228.394912,-5,1910,90,Retrograde,10,4,0
Flight 1,488964.0345,3177.550177,-4,1906,90,Retrograde,10,4,1
Flight 1,488964.1745,3127.095732,-4,1902,90,Retrograde,10,4,0
Flight 1,488964.3145,3077.026832,-4,1898,90,Retrograde,10,4,0
Flight 1,488964.4545,3027.337164,-4,1893,90,Retrograde,10,5,0
Flight 1,488964.5945,2978.022133,-4,1890,90,Retrograde,10,3,0
Flight 1,488964.7345,2929.076482,-3,1885,90,Retrograde,0,5,1
Flight 1,488964.8745,2880.495608,-3,1881,90,Retrograde,0,4,0
Flight 1,488965.0145,2832.275466,-3,1878,90,Retrograde,0,3,0
Flight 1,488965.1545,2784.409899,-3,1875,90,Retrograde,0,3,0
Flight 1,488965.2945,2736.892397,-3,1872,90,Retrograde,0,3,0
Flight 1,488965.4345,2689.718329,-3,1869,90,Retrograde,0,3,0
Flight 1,488965.5745,2642.882205,-3,1865,90,Retrograde,0,4,0
Flight 1,488965.7145,2596.379166,-3,1862,90,Retrograde,0,3,0
Flight 1,488965.8545,2550.204253,-3,1859,90,Retrograde,0,3,0
Flight 1,488965.9945,2504.352627,-3,1857,90,Retrograde,0,2,0
Flight 1,488966.1345,2458.819568,-3,1853,90,Retrograde,0,4,0
Flight 1,488966.2745,2413.600807,-3,1850,90,Retrograde,0,3,0
Flight 1,488966.4145,2368.691719,-4,1847,90,Retrograde,10,3,-1
Flight 1,488966.5545,2324.0878,-4,1843,90,Retrograde,10,4,0
Flight 1,488966.6945,2279.786762,-4,1840,90,Retrograde,10,3,0
Flight 1,488966.8345,2235.783129,-4,1837,90,Retrograde,10,3,0
Flight 1,488966.9745,2192.071629,-4,1834,90,Retrograde,10,3,0
Flight 1,488967.1145,2148.648654,-4,1831,90,Retrograde,10,3,0
Flight 1,488967.2545,2105.509538,-4,1829,90,Retrograde,10,2,0
Flight 1,488967.3945,2062.650261,-4,1826,90,Retrograde,10,3,0
Flight 1,488967.5345,2020.06637,-4,1824,90,Retrograde,10,2,0
Flight 1,488967.6745,1977.753564,-4,1822,90,Retrograde,10,2,0
Flight 1,488967.8145,1935.70643,-4,1819,90,Retrograde,10,3,0
Flight 1,488967.9545,1893.919324,-3,1817,90,Retrograde,0,2,1
Flight 1,488968.0945,1852.386047,-3,1814,90,Retrograde,0,3,0
Flight 1,488968.2345,1811.101622,-3,1812,90,Retrograde,0,2,0
Flight 2,488870.2573,84619.09488,37,3663,90,Retrograde-5,335,-1851,40
Flight 2,488870.3973,84567.06544,37,3662,90,Retrograde-5,335,1,0
Flight 2,488870.5373,84514.84639,34,3662,90,Retrograde-5,335,0,-3
Flight 2,488870.6773,84462.45366,32,3663,90,Retrograde-5,335,-1,-2
Flight 2,488870.8173,84409.86119,28,3663,90,Retrograde-5,335,0,-4
Flight 2,488870.9573,84357.08851,25,3664,90,Retrograde-5,335,-1,-3
Flight 2,488871.0973,84304.12621,21,3665,90,Retrograde-5,335,-1,-4
Flight 2,488871.2373,84250.99212,18,3665,90,Retrograde-5,335,0,-3
Flight 2,488871.3773,84197.66387,16,3666,90,Retrograde-5,335,-1,-2
Flight 2,488871.5173,84144.15356,13,3666,90,Retrograde-5,345,0,-3
Flight 2,488871.6573,84090.45362,10,3667,90,Retrograde-5,345,-1,-3
Flight 2,488871.7973,84036.56378,8,3668,90,Retrograde-5,345,-1,-2
Flight 2,488871.9373,83982.49417,7,3668,90,Retrograde-5,345,0,-1
Flight 2,488872.0773,83928.23256,6,3668,90,Retrograde-5,345,0,-1
Flight 2,488872.2173,83873.78292,7,3668,90,Retrograde-5,345,0,1
Flight 2,488872.3573,83819.15278,8,3668,90,Retrograde-5,345,0,1
Flight 2,488872.4973,83764.33252,11,3668,90,Retrograde-5,345,0,3
Flight 2,488872.6373,83709.3327,12,3667,90,Retrograde-5,345,1,1
Flight 2,488872.7773,83654.1373,15,3667,90,Retrograde-5,345,0,3
Flight 2,488872.9173,83598.76772,17,3667,90,Retrograde-5,335,0,2
Flight 2,488873.0573,83543.20615,20,3667,90,Retrograde-5,335,0,3
Flight 2,488873.1973,83487.46969,23,3668,90,Retrograde-5,335,-1,3
Flight 2,488873.3373,83431.5421,26,3667,90,Retrograde-5,335,1,3
Flight 2,488873.4773,83375.43495,29,3668,90,Retrograde-5,335,-1,3
Flight 2,488873.6173,83319.14378,31,3668,90,Retrograde-5,335,0,2
Flight 2,488873.7573,83262.65775,33,3668,90,Retrograde-5,335,0,2
Flight 2,488873.8973,83205.98699,35,3667,90,Retrograde-5,335,1,2
Flight 2,488874.0373,83149.14161,37,3667,90,Retrograde-5,335,0,2
Flight 2,488874.1773,83092.09527,38,3668,90,Retrograde-5,335,-1,1
Flight 2,488874.3173,83034.86348,39,3668,90,Retrograde-5,335,0,1
Flight 2,488874.4573,82977.44883,39,3668,90,Retrograde-5,335,0,0
Flight 2,488874.5973,82919.83772,39,3668,90,Retrograde-5,335,0,0
Flight 2,488874.7373,82862.05482,39,3666,90,Retrograde-5,335,2,0
Flight 2,488874.8773,82804.07849,38,3666,90,Retrograde-5,335,0,-1
Flight 2,488875.0173,82745.91441,38,3667,90,Retrograde-5,335,-1,0
Flight 2,488875.1573,82687.56559,38,3667,90,Retrograde-5,335,0,0
Flight 2,488875.2973,82629.03334,38,3667,90,Retrograde-5,335,0,0
Flight 2,488875.4373,82570.31096,38,3668,90,Retrograde-5,335,-1,0
Flight 2,488875.5773,82511.39221,38,3668,90,Retrograde-5,335,0,0
Flight 2,488875.7173,82452.28981,38,3668,90,Retrograde-5,335,0,0
Flight 2,488875.8573,82393.0054,36,3667,90,Retrograde-5,335,1,-2
Flight 2,488875.9973,82333.5272,37,3668,90,Retrograde-5,335,-1,1
Flight 2,488876.1373,82273.87182,37,3668,90,Retrograde-5,335,0,0
Flight 2,488876.2773,82214.01855,36,3668,90,Retrograde-5,335,0,-1
Flight 2,488876.4173,82153.98278,36,3668,90,Retrograde-5,335,0,0
Flight 2,488876.5573,82093.74984,36,3668,90,Retrograde-5,335,0,0
Flight 2,488876.6973,82033.33828,36,3668,90,Retrograde-5,335,0,0
Flight 2,488876.8373,81972.7454,37,3667,90,Retrograde-5,335,1,1
Flight 2,488876.9773,81911.95571,36,3668,90,Retrograde-5,335,-1,-1
Flight 2,488877.1173,81850.98316,36,3668,90,Retrograde-5,335,0,0
Flight 2,488877.2573,81789.81686,36,3668,90,Retrograde-5,335,0,0
Flight 2,488877.3973,81728.4692,37,3668,90,Retrograde-5,335,0,1
Flight 2,488877.5373,81666.93156,37,3668,90,Retrograde-5,335,0,0
Flight 2,488877.6773,81605.20319,37,3669,90,Retrograde-5,335,-1,0
Flight 2,488877.8173,81543.29044,37,3668,90,Retrograde-5,335,1,0
Flight 2,488877.9573,81481.19264,37,3668,90,Retrograde-5,335,0,0
Flight 2,488878.0973,81418.90483,37,3668,90,Retrograde-5,335,0,0
Flight 2,488878.2373,81356.43227,37,3668,90,Retrograde-5,335,0,0
Flight 2,488878.3773,81293.76748,37,3668,90,Retrograde-5,335,0,0
Flight 2,488878.5173,81230.91645,37,3668,90,Retrograde-5,335,0,0
Flight 2,488878.6573,81167.8762,36,3668,90,Retrograde-5,335,0,-1
Flight 2,488878.7973,81104.65005,36,3667,90,Retrograde-5,335,1,0
Flight 2,488878.9373,81041.23203,36,3668,90,Retrograde-5,335,-1,0
Flight 2,488879.0773,80977.62927,36,3668,90,Retrograde-5,335,0,0
Flight 2,488879.2173,80913.84181,36,3668,90,Retrograde-5,335,0,0
Flight 2,488879.3573,80849.86665,37,3668,90,Retrograde-5,335,0,1
Flight 2,488879.4973,80785.69916,36,3668,90,Retrograde-5,335,0,-1
Flight 2,488879.6373,80721.35115,36,3669,90,Retrograde-5,335,-1,0
Flight 2,488879.7773,80656.80974,36,3668,90,Retrograde-5,335,1,0
Flight 2,488879.9173,80592.08737,36,3668,90,Retrograde-5,335,0,0
Flight 2,488880.0573,80527.1724,36,3668,90,Retrograde-5,335,0,0
Flight 2,488880.1973,80462.07,36,3668,90,Retrograde-5,335,0,0
Flight 2,488880.3373,80396.77993,36,3668,90,Retrograde-5,335,0,0
Flight 2,488880.4773,80331.30396,36,3668,90,Retrograde-5,335,0,0
Flight 2,488880.6173,80265.63798,37,3668,90,Retrograde-5,335,0,1
Flight 2,488880.7573,80199.78434,37,3667,90,Retrograde-5,335,1,0
Flight 2,488880.8973,80133.74516,37,3667,90,Retrograde-5,335,0,0
Flight 2,488881.0373,80067.51525,38,3667,90,Retrograde-5,335,0,1
Flight 2,488881.1773,80001.09945,37,3667,90,Retrograde-5,335,0,-1
Flight 2,488881.3173,79934.49479,37,3668,90,Retrograde-5,335,-1,0
Flight 2,488881.4573,79867.70166,37,3668,90,Retrograde-5,335,0,0
Flight 2,488881.5973,79800.72534,36,3668,90,Retrograde-5,335,0,-1
Flight 2,488881.7373,79733.55714,36,3668,90,Retrograde-5,335,0,0
Flight 2,488881.8773,79666.20453,36,3668,90,Retrograde-5,335,0,0
Flight 2,488882.0173,79598.66312,37,3668,90,Retrograde-5,335,0,1
Flight 2,488882.1573,79530.93508,37,3668,90,Retrograde-5,335,0,0
Flight 2,488882.2973,79463.01551,37,3668,90,Retrograde-5,335,0,0
Flight 2,488882.4373,79394.91086,36,3668,90,Retrograde-5,335,0,-1
Flight 2,488882.5773,79326.61431,37,3668,90,Retrograde-5,335,0,1
Flight 2,488882.7173,79258.13986,36,3666,90,Retrograde-5,335,2,-1
Flight 2,488882.8573,79189.47846,36,3664,90,Retrograde-5,335,2,0
Flight 2,488882.9973,79120.63045,36,3662,90,Retrograde-5,335,2,0
Flight 2,488883.1373,79051.60231,36,3661,90,Retrograde-5,335,1,0
Flight 2,488883.2773,78982.38978,35,3659,90,Retrograde-5,335,2,-1
Flight 2,488883.4173,78912.99372,35,3657,90,Retrograde-5,335,2,0
Flight 2,488883.5573,78843.41372,35,3656,90,Retrograde-5,335,1,0
Flight 2,488883.6973,78773.65057,34,3654,90,Retrograde-5,335,2,-1
Flight 2,488883.8373,78703.70796,34,3652,90,Retrograde-5,335,2,0
Flight 2,488883.9773,78633.57956,34,3650,90,Retrograde-5,335,2,0
Flight 2,488884.1173,78563.27208,33,3648,90,Retrograde-5,335,2,-1
Flight 2,488884.2573,78492.77357,33,3646,90,Retrograde-5,335,2,0
Flight 2,488884.3973,78422.09746,32,3645,90,Retrograde-5,335,1,-1
Flight 2,488884.5373,78351.2363,32,3643,90,Retrograde-5,335,2,0
Flight 2,488884.6773,78280.19005,32,3641,90,Retrograde-5,335,2,0
Flight 2,488884.8173,78208.96026,32,3639,90,Retrograde-5,335,2,0
Flight 2,488884.9573,78137.5495,32,3637,90,Retrograde-5,335,2,0
Flight 2,488885.0973,78065.95484,31,3635,90,Retrograde-5,335,2,-1
Flight 2,488885.2373,77994.17851,31,3634,90,Retrograde-5,335,1,0
Flight 2,488885.3773,77922.21593,30,3632,90,Retrograde-5,335,2,-1
Flight 2,488885.5173,77850.07473,30,3630,90,Retrograde-5,335,2,0
Flight 2,488885.6573,77777.75035,30,3629,90,Retrograde-5,335,1,0
Flight 2,488885.7973,77705.24464,30,3627,90,Retrograde-5,335,2,0
Flight 2,488885.9373,77632.55128,29,3625,90,Retrograde-5,335,2,-1
Flight 2,488886.0773,77559.67356,29,3624,90,Retrograde-5,335,1,0
Flight 2,488886.2173,77486.61449,29,3622,90,Retrograde-5,335,2,0
Flight 2,488886.3573,77413.37343,28,3620,90,Retrograde-5,335,2,-1
Flight 2,488886.4973,77339.94576,28,3618,90,Retrograde-5,335,2,0
Flight 2,488886.6373,77266.33797,28,3616,90,Retrograde-5,335,2,0
Flight 2,488886.7773,77192.5466,28,3614,90,Retrograde-5,335,2,0
Flight 2,488886.9173,77118.57089,27,3611,90,Retrograde-5,335,3,-1
Flight 2,488887.0573,77044.41842,27,3610,90,Retrograde-5,335,1,0
Flight 2,488887.1973,76970.07408,27,3609,90,Retrograde-5,335,1,0
Flight 2,488887.3373,76895.5469,26,3607,90,Retrograde-5,335,2,-1
Flight 2,488887.4773,76820.84298,27,3606,90,Retrograde-5,335,1,1
Flight 2,488887.6173,76745.94904,26,3604,90,Retrograde-5,335,2,-1
Flight 2,488887.7573,76670.87497,26,3603,90,Retrograde-5,335,1,0
Flight 2,488887.8973,76595.61089,26,3603,90,Retrograde-5,335,0,0
Flight 2,488888.0373,76520.16021,26,3604,90,Retrograde-5,335,-1,0
Flight 2,488888.1773,76444.51797,26,3606,90,Retrograde-5,335,-2,0
Flight 2,488888.3173,76368.68082,27,3608,90,Retrograde-5,335,-2,1
Flight 2,488888.4573,76292.6589,27,3610,90,Retrograde-5,335,-2,0
Flight 2,488888.5973,76216.44053,27,3612,90,Retrograde-5,335,-2,0
Flight 2,488888.7373,76140.02992,27,3613,90,Retrograde-5,335,-1,0
Flight 2,488888.8773,76063.43033,28,3614,90,Retrograde-5,335,-1,1
Flight 2,488889.0173,75986.63734,28,3617,90,Retrograde-5,335,-3,0
Flight 2,488889.1573,75909.64412,29,3619,90,Retrograde-5,335,-2,1
Flight 2,488889.2973,75832.47402,29,3622,90,Retrograde-5,335,-3,0
Flight 2,488889.4373,75755.10606,29,3623,90,Retrograde-5,335,-1,0
Flight 2,488889.5773,75677.54537,29,3624,90,Retrograde-5,335,-1,0
Flight 2,488889.7173,75599.79995,30,3625,90,Retrograde-5,335,-1,1
Flight 2,488889.8573,75521.86384,29,3626,90,Retrograde-5,335,-1,-1
Flight 2,488889.9973,75443.73687,30,3627,90,Retrograde-5,335,-1,1
Flight 2,488890.1373,75365.42449,29,3627,90,Retrograde-5,335,0,-1
Flight 2,488890.2773,75286.9221,30,3627,90,Retrograde-5,335,0,1
Flight 2,488890.4173,75208.23343,29,3627,90,Retrograde-5,335,0,-1
Flight 2,488890.5573,75129.35512,30,3627,90,Retrograde-5,335,0,1
Flight 2,488890.6973,75050.28796,30,3627,90,Retrograde-5,335,0,0
Flight 2,488890.8373,74971.03269,30,3626,90,Retrograde-5,335,1,0
Flight 2,488890.9773,74891.59609,29,3626,90,Retrograde-5,335,0,-1
Flight 2,488891.1173,74811.96385,29,3626,90,Retrograde-5,335,0,0
Flight 2,488891.2573,74732.14944,30,3627,90,Retrograde-5,335,-1,1
Flight 2,488891.3973,74652.14551,29,3627,90,Retrograde-5,335,0,-1
Flight 2,488891.5373,74571.95075,29,3627,90,Retrograde-5,335,0,0
