Flight,Time,Altitude,LatError_Meters,LngError_Meters,Heading,Pitch,Roll,Latitude Change Meters,Longitude Change Meters
Flight 10,488843.7164,82415.99232,-84,4075,90,Retrograde-9,25,-3070,-84
Flight 10,488843.9564,82314.47747,-84,4075,90,Retrograde-9,25,0,0
Flight 10,488844.1964,82212.39401,-84,4075,90,Retrograde-9,25,0,0
Flight 10,488844.4364,82109.77396,-88,4075,90,Retrograde-9,25,0,-4
Flight 10,488844.6764,82006.6043,-91,4076,90,Retrograde-9,25,-1,-3
Flight 10,488844.9164,81902.89244,-95,4077,90,Retrograde-9,25,-1,-4
Flight 10,488845.1564,81798.63908,-99,4077,90,Retrograde-9,25,0,-4
Flight 10,488845.3964,81693.82084,-96,4077,90,Retrograde-9,25,0,3
Flight 10,488845.6364,81588.46428,-94,4077,90,Retrograde-9,25,0,2
Flight 10,488845.8764,81482.55204,-92,4077,90,Retrograde-9,25,0,2
Flight 10,488846.1164,81376.10203,-91,4077,90,Retrograde-9,25,0,1
Flight 10,488846.3564,81269.09205,-89,4076,90,Retrograde-9,25,1,2
Flight 10,488846.5964,81161.53994,-87,4077,90,Retrograde-9,25,-1,2
Flight 10,488846.8364,81053.43541,-86,4077,90,Retrograde-9,25,0,1
Flight 10,488847.0764,80944.78251,-85,4077,90,Retrograde-9,25,0,1
Flight 10,488847.3164,80835.58024,-84,4078,90,Retrograde-9,25,-1,1
Flight 10,488847.5564,80725.82533,-83,4078,90,Retrograde-9,25,0,1
Flight 10,488847.7964,80615.52454,-84,4077,90,Retrograde-9,25,1,-1
Flight 10,488848.0364,80504.66325,-83,4077,90,Retrograde-9,25,0,1
Flight 10,488848.2764,80393.25476,-83,4077,90,Retrograde-9,25,0,0
Flight 10,488848.5164,80281.2993,-83,4077,90,Retrograde-9,25,0,0
Flight 10,488848.7564,80168.78934,-83,4077,90,Retrograde-9,25,0,0
Flight 10,488848.9964,80055.72564,-83,4077,90,Retrograde-9,25,0,0
Flight 10,488849.2364,79942.11287,-83,4078,90,Retrograde-9,25,-1,0
Flight 10,488849.4764,79827.94451,-84,4078,90,Retrograde-9,25,0,-1
Flight 10,488849.7164,79713.22785,-86,4078,90,Retrograde-9,25,0,-2
Flight 10,488849.9564,79597.95373,-86,4078,90,Retrograde-9,25,0,0
Flight 10,488850.1964,79482.12992,-85,4077,90,Retrograde-9,25,1,1
Flight 10,488850.4364,79365.75915,-84,4076,90,Retrograde-9,25,1,1
Flight 10,488850.6764,79248.84195,-85,4077,90,Retrograde-9,25,-1,-1
Flight 10,488850.9164,79131.36838,-85,4077,90,Retrograde-9,25,0,0
Flight 10,488851.1564,79013.34839,-86,4078,90,Retrograde-9,25,-1,-1
Flight 10,488851.3964,78894.77093,-87,4079,90,Retrograde-9,25,-1,-1
Flight 10,488851.6364,78775.63841,-86,4078,90,Retrograde-9,25,1,1
Flight 10,488851.8764,78655.96693,-83,4078,90,Retrograde-9,25,0,3
Flight 10,488852.1164,78535.73417,-83,4077,90,Retrograde-9,25,1,0
Flight 10,488852.3564,78414.955,-84,4077,90,Retrograde-9,25,0,-1
Flight 10,488852.5964,78293.62512,-84,4077,90,Retrograde-9,25,0,0
Flight 10,488852.8364,78171.7419,-87,4078,90,Retrograde-9,25,-1,-3
Flight 10,488853.0764,78049.30245,-87,4079,90,Retrograde-9,25,-1,0
Flight 10,488853.3164,77926.32226,-84,4080,90,Retrograde-9,25,-1,3
Flight 10,488853.5564,77802.78452,-84,4080,90,Retrograde-9,25,0,0
Flight 10,488853.7964,77678.69966,-86,4080,90,Retrograde-9,25,0,-2
Flight 10,488854.0364,77554.06347,-86,4079,90,Retrograde-9,25,1,0
Flight 10,488854.2764,77428.87955,-85,4078,90,Retrograde-9,25,1,1
Flight 10,488854.5164,77303.1394,-84,4077,90,Retrograde-9,25,1,1
Flight 10,488854.7564,77176.85773,-84,4078,90,Retrograde-9,25,-1,0
Flight 10,488854.9964,77050.01236,-86,4078,90,Retrograde-9,25,0,-2
Flight 10,488855.2364,76922.62844,-86,4078,90,Retrograde-9,25,0,0
Flight 10,488855.4764,76794.69077,-87,4078,90,Retrograde-9,25,0,-1
Flight 10,488855.7164,76666.20241,-86,4078,90,Retrograde-9,25,0,1
Flight 10,488855.9564,76537.15595,-85,4078,90,Retrograde-9,25,0,1
Flight 10,488856.1964,76407.56229,-85,4077,90,Retrograde-9,25,1,0
Flight 10,488856.4364,76277.4057,-85,4076,90,Retrograde-9,25,1,0
Flight 10,488856.6764,76146.70269,-85,4077,90,Retrograde-9,25,-1,0
Flight 10,488856.9164,76015.4525,-85,4077,90,Retrograde-9,25,0,0
Flight 10,488857.1564,75883.64801,-85,4078,90,Retrograde-9,25,-1,0
Flight 10,488857.3964,75751.29874,-85,4077,90,Retrograde-9,25,1,0
Flight 10,488857.6364,75618.40251,-85,4075,90,Retrograde-9,25,2,0
Flight 10,488857.8764,75484.97069,-85,4071,90,Retrograde-9,25,4,0
Flight 10,488858.1164,75350.99542,-85,4068,90,Retrograde-9,25,3,0
Flight 10,488858.3564,75216.48292,-86,4065,90,Retrograde-9,25,3,-1
Flight 10,488858.5964,75081.44161,-86,4062,90,Retrograde-9,25,3,0
Flight 10,488858.8364,74945.8503,-85,4061,90,Retrograde-9,25,1,1
Flight 10,488859.0764,74809.72644,-86,4058,90,Retrograde-9,25,3,-1
Flight 10,488859.3164,74673.05422,-86,4055,90,Retrograde-9,25,3,0
Flight 10,488859.5564,74535.84968,-86,4052,90,Retrograde-9,25,3,0
Flight 10,488859.7964,74398.11143,-86,4049,90,Retrograde-9,25,3,0
Flight 10,488860.0364,74259.82862,-86,4046,90,Retrograde-9,25,3,0
Flight 10,488860.2764,74121.00969,-86,4044,90,Retrograde-9,25,2,0
Flight 10,488860.5164,73981.64676,-87,4041,90,Retrograde-9,25,3,-1
Flight 10,488860.7564,73841.74583,-86,4038,90,Retrograde-9,25,3,1
Flight 10,488860.9964,73701.31445,-87,4035,90,Retrograde-9,25,3,-1
Flight 10,488861.2364,73560.34149,-87,4033,90,Retrograde-9,25,2,0
Flight 10,488861.4764,73418.83295,-87,4030,90,Retrograde-9,25,3,0
Flight 10,488861.7164,73276.77745,-87,4027,90,Retrograde-9,25,3,0
Flight 10,488861.9564,73134.1845,-87,4024,90,Retrograde-9,25,3,0
Flight 10,488862.1964,72991.05751,-87,4021,90,Retrograde-9,25,3,0
Flight 10,488862.4364,72847.38389,-88,4018,90,Retrograde-9,25,3,-1
Flight 10,488862.6764,72703.17657,-88,4015,90,Retrograde-9,25,3,0
Flight 10,488862.9164,72558.43092,-88,4013,90,Retrograde-9,25,2,0
Flight 10,488863.1564,72413.12157,-88,4015,90,Retrograde-9,25,-2,0
Flight 10,488863.3964,72267.24577,-88,4018,90,Retrograde-9,25,-3,0
Flight 10,488863.6364,72120.80517,-88,4022,90,Retrograde-9,25,-4,0
Flight 10,488863.8764,71973.7919,-87,4025,90,Retrograde-9,25,-3,1
Flight 10,488864.1164,71826.22737,-87,4028,90,Retrograde-9,25,-3,0
Flight 10,488864.3564,71678.10372,-87,4031,90,Retrograde-9,25,-3,0
Flight 10,488864.5964,71529.40848,-88,4034,90,Retrograde-9,25,-3,-1
Flight 10,488864.8364,71380.16276,-87,4037,90,Retrograde-9,25,-3,1
Flight 10,488865.0764,71230.34304,-87,4041,90,Retrograde-9,25,-4,0
Flight 10,488865.3164,71079.95742,-87,4044,90,Retrograde-9,25,-3,0
Flight 10,488865.5564,70929.00644,-87,4046,90,Retrograde-9,25,-2,0
Flight 10,488865.7964,70777.49984,-87,4048,90,Retrograde-9,25,-2,0
Flight 10,488866.0364,70625.44627,-86,4048,90,Retrograde-9,25,0,1
Flight 10,488866.2764,70472.84629,-87,4047,90,Retrograde-9,25,1,-1
Flight 10,488866.5164,70319.69476,-87,4045,90,Retrograde-9,25,2,0
Flight 10,488866.7564,70165.99812,-87,4044,90,Retrograde-9,25,1,0
Flight 10,488866.9964,70011.75811,-87,4043,90,Retrograde-9,25,1,0
Flight 10,488867.2364,69856.95868,-87,4043,90,Retrograde-9,25,0,0
Flight 10,488867.4764,69701.60363,-87,4042,90,Retrograde-9,25,1,0
Flight 10,488867.7164,69545.71136,-87,4042,90,Retrograde-9,25,0,0
Flight 10,488867.9564,69389.25428,-87,4042,90,Retrograde-9,25,0,0
Flight 10,488868.1964,69232.2581,-87,4041,90,Retrograde-9,25,1,0
Flight 10,488868.4364,69074.69899,-87,4041,90,Retrograde-9,25,0,0
Flight 10,488868.6764,68916.5891,-86,4041,90,Retrograde-9,25,0,1
Flight 10,488868.9164,68757.92795,-87,4041,90,Retrograde-9,25,0,-1
Flight 10,488869.1564,68598.71416,-86,4041,90,Retrograde-9,25,0,1
Flight 10,488869.3964,68438.95829,-87,4041,90,Retrograde-9,25,0,-1
Flight 10,488869.6364,68278.63756,-87,4041,90,Retrograde-9,25,0,0
Flight 10,488869.8764,68117.77234,-87,4040,90,Retrograde-9,25,1,0
Flight 10,488870.1164,67956.34396,-87,4040,90,Retrograde-9,25,0,0
Flight 10,488870.3564,67794.37725,-87,4040,90,Retrograde-9,25,0,0
Flight 10,488870.5964,67631.86022,-87,4039,90,Retrograde-9,25,1,0
Flight 10,488870.8364,67468.77606,-87,4040,90,Retrograde-9,25,-1,0
Flight 10,488871.0764,67305.14344,-87,4040,90,Retrograde-9,25,0,0
Flight 10,488871.3164,67140.96346,-87,4040,90,Retrograde-9,25,0,0
Flight 10,488871.5564,66976.22299,-87,4040,90,Retrograde-9,25,0,0
Flight 10,488871.7964,66810.93327,-87,4040,90,Retrograde-9,25,0,0
Flight 10,488872.0364,66645.09076,-87,4040,90,Retrograde-9,25,0,0
Flight 10,488872.2764,66478.69478,-87,4040,90,Retrograde-9,25,0,0
Flight 10,488872.5164,66311.75023,-87,4039,90,Retrograde-9,25,1,0
Flight 10,488872.7564,66144.24883,-87,4039,90,Retrograde-9,25,0,0
Flight 10,488872.9964,65976.19426,-87,4040,90,Retrograde-9,25,-1,0
Flight 10,488873.2364,65807.59298,-87,4040,90,Retrograde-9,25,0,0
Flight 10,488873.4764,65638.43178,-86,4040,90,Retrograde-9,25,0,1
Flight 10,488873.7164,65468.72725,-86,4039,90,Retrograde-9,25,1,0
Flight 10,488873.9564,65298.46279,-87,4039,90,Retrograde-9,25,0,-1
Flight 10,488874.1964,65127.64458,-87,4039,90,Retrograde-9,25,0,0
Flight 10,488874.4364,64956.2778,-87,4039,90,Retrograde-9,25,0,0
Flight 10,488874.6764,64784.35699,-87,4038,90,Retrograde-9,25,1,0
Flight 10,488874.9164,64611.88451,-87,4039,90,Retrograde-9,25,-1,0
Flight 10,488875.1564,64438.85799,-87,4039,90,Retrograde-9,25,0,0
Flight 10,488875.3964,64265.2798,-87,4039,90,Retrograde-9,25,0,0
Flight 10,488875.6364,64091.15435,-86,4038,90,Retrograde-9,25,1,1
Flight 10,488875.8764,63916.47263,-86,4038,90,Retrograde-9,25,0,0
Flight 10,488876.1164,63741.24081,-87,4038,90,Retrograde-9,25,0,-1
Flight 10,488876.3564,63565.45462,-87,4037,90,Retrograde-9,25,1,0
Flight 10,488876.5964,63389.11561,-86,4037,90,Retrograde-9,25,0,1
Flight 10,488876.8364,63212.22682,-87,4037,90,Retrograde-9,25,0,-1
Flight 10,488877.0764,63034.78033,-87,4038,90,Retrograde-9,25,-1,0
Flight 10,488877.3164,62856.78161,-86,4038,90,Retrograde-9,25,0,1
Flight 10,488877.5564,62678.23308,-86,4038,90,Retrograde-9,25,0,0
Flight 10,488877.7964,62499.12865,-86,4038,90,Retrograde-9,25,0,0
Flight 10,488878.0364,62319.47413,-87,4037,90,Retrograde-9,25,1,-1
Flight 10,488878.2764,62139.26737,-87,4037,90,Retrograde-9,25,0,0
Flight 10,488878.5164,61958.51242,-86,4036,90,Retrograde-9,25,1,1
Flight 10,488878.7564,61777.20372,-87,4036,90,Retrograde-9,25,0,-1
Flight 10,488878.9964,61595.33874,-86,4037,90,Retrograde-9,25,-1,1
Flight 10,488879.2364,61412.92556,-86,4037,90,Retrograde-9,25,0,0
Flight 10,488879.4764,61229.95677,-86,4037,90,Retrograde-9,25,0,0
Flight 10,488879.7164,61046.43732,-87,4036,90,Retrograde-9,25,1,-1
Flight 10,488879.9564,60862.36837,-87,4036,90,Retrograde-9,25,0,0
Flight 10,488880.1964,60677.74445,-87,4035,90,Retrograde-9,25,1,0
Flight 10,488880.4364,60492.57355,-87,4035,90,Retrograde-9,25,0,0
Flight 10,488880.6764,60306.84392,-87,4035,90,Retrograde-9,25,0,0
Flight 10,488880.9164,60120.56703,-87,4035,90,Retrograde-9,25,0,0
Flight 10,488881.1564,59933.74128,-86,4035,90,Retrograde-9,25,0,1
Flight 10,488881.3964,59746.36178,-86,4034,90,Retrograde-9,25,1,0
Flight 10,488881.6364,59558.43032,-86,4034,90,Retrograde-9,25,0,0
Flight 10,488881.8764,59369.94644,-87,4034,90,Retrograde-9,25,0,-1
Flight 10,488882.1164,59180.90908,-87,4034,90,Retrograde-9,25,0,0
Flight 10,488882.3564,58991.3192,-86,4034,90,Retrograde-9,25,0,1
Flight 10,488882.5964,58801.18206,-86,4032,90,Retrograde-9,25,2,0
Flight 10,488882.8361,58610.67555,-86,4033,90,Retrograde-9,25,-1,0
Flight 10,488883.0478,58442.06691,-87,4032,90,Retrograde-9,25,1,-1
Flight 10,488883.2237,58301.62194,-87,4027,90,Retrograde-9,25,5,0
Flight 10,488883.4125,58150.50308,-87,4021,90,Retrograde-9,25,6,0
Flight 10,488883.56,58032.25012,-87,4017,90,Retrograde-9,25,4,0
Flight 10,488883.6998,57920.04157,-87,4013,90,Retrograde-9,25,4,0
Flight 10,488883.8251,57819.19315,-87,4006,90,Retrograde-9,25,7,0
Flight 10,488883.9651,57706.42002,-87,4006,90,Retrograde-9,25,0,0
Flight 10,488884.1051,57593.45573,-87,4006,90,Retrograde-9,25,0,0
Flight 10,488884.2451,57480.30507,-87,4005,90,Retrograde-9,25,1,0
Flight 10,488884.3851,57366.96813,-87,4005,90,Retrograde-9,25,0,0
Flight 10,488884.5251,57253.44303,-87,4005,90,Retrograde-9,25,0,0
Flight 10,488884.6651,57139.73409,-87,4005,90,Retrograde-9,25,0,0
Flight 10,488884.8051,57025.83485,-87,4005,90,Retrograde-9,25,0,0
Flight 10,488884.9451,56911.74959,-86,4005,90,Retrograde-9,25,0,1
Flight 10,488885.0851,56797.47562,-87,4005,90,Retrograde-9,25,0,-1
Flight 10,488885.2251,56683.01349,-86,4006,90,Retrograde-9,25,-1,1
Flight 10,488885.3651,56568.36687,-87,4005,90,Retrograde-9,25,1,-1
Flight 10,488885.5051,56453.5306,-86,4005,90,Retrograde-9,25,0,1
Flight 10,488885.6451,56338.50897,-86,4005,90,Retrograde-9,25,0,0
Flight 10,488885.7851,56223.29611,-86,4005,90,Retrograde-9,25,0,0
Flight 10,488885.9251,56107.89789,-86,4005,90,Retrograde-9,25,0,0
Flight 10,488886.0651,55992.30843,-86,4004,90,Retrograde-9,25,1,0
Flight 10,488886.2051,55876.54066,-86,4004,90,Retrograde-9,25,0,0
Flight 10,488886.3451,55760.57985,-86,4004,90,Retrograde-9,25,0,0
Flight 10,488886.4851,55644.43117,-86,4004,90,Retrograde-9,25,0,0
Flight 10,488886.6251,55528.09377,-86,4004,90,Retrograde-9,25,0,0
Flight 10,488886.7651,55411.57188,-86,4004,90,Retrograde-9,25,0,0
Flight 10,488886.9051,55294.86341,-86,4004,90,Retrograde-9,25,0,0
Flight 10,488887.0451,55177.96831,-86,4004,90,Retrograde-9,25,0,0
Flight 10,488887.1851,55060.88325,-86,4004,90,Retrograde-9,25,0,0
Flight 10,488887.3251,54943.60817,-86,4004,90,Retrograde-9,25,0,0
Flight 10,488887.4651,54826.15083,-86,4003,90,Retrograde-9,25,1,0
Flight 10,488887.6051,54708.50468,-86,4003,90,Retrograde-9,25,0,0
Flight 10,488887.7451,54590.67413,-86,4003,90,Retrograde-9,25,0,0
Flight 10,488887.8851,54472.65722,-86,4002,90,Retrograde-9,25,1,0
Flight 10,488888.0251,54354.45101,-86,4002,90,Retrograde-9,25,0,0
Flight 10,488888.1651,54236.05598,-86,4002,90,Retrograde-9,25,0,0
Flight 10,488888.3051,54117.47684,-86,4001,90,Retrograde-9,25,1,0
Flight 10,488888.4451,53998.7086,-86,4001,90,Retrograde-9,25,0,0
Flight 10,488888.5851,53879.75718,-86,4001,90,Retrograde-9,25,0,0
Flight 10,488888.7251,53760.62005,-86,4001,90,Retrograde-9,25,0,0
Flight 10,488888.8651,53641.29203,-85,4001,90,Retrograde-9,25,0,1
Flight 10,488889.0051,53521.77923,-86,4001,90,Retrograde-9,25,0,-1
Flight 10,488889.1451,53402.07893,-86,4001,90,Retrograde-9,25,0,0
Flight 10,488889.2851,53282.19019,-85,4001,90,Retrograde-9,25,0,1
Flight 10,488889.4251,53162.11668,-85,4001,90,Retrograde-9,25,0,0
Flight 10,488889.5651,53041.85904,-85,4001,90,Retrograde-9,25,0,0
Flight 10,488889.7051,52921.41204,-85,4001,90,Retrograde-9,25,0,0
Flight 10,488889.8451,52800.77507,-85,4000,90,Retrograde-9,25,1,0
Flight 10,488889.9851,52679.95606,-85,4000,90,Retrograde-9,25,0,0
Flight 10,488890.1251,52558.94682,-85,3999,90,Retrograde-9,25,1,0
Flight 10,488890.2651,52437.75158,-85,3999,90,Retrograde-9,25,0,0
Flight 10,488890.4051,52316.37279,-85,3998,90,Retrograde-9,25,1,0
Flight 10,488890.5451,52194.80527,-85,3999,90,Retrograde-9,25,-1,0
Flight 10,488890.6851,52073.05945,-85,3999,90,Retrograde-9,25,0,0
Flight 10,488890.8251,51951.11994,-85,3999,90,Retrograde-9,25,0,0
Flight 10,488890.9651,51828.99723,-85,3999,90,Retrograde-9,25,0,0
Flight 10,488891.1051,51706.68488,-85,3999,90,Retrograde-9,25,0,0
Flight 10,488891.2451,51584.18989,-85,3998,90,Retrograde-9,25,1,0
Flight 10,488891.3851,51461.50525,-85,3998,90,Retrograde-9,25,0,0
Flight 10,488891.5251,51338.64109,-85,3998,90,Retrograde-9,25,0,0
Flight 10,488891.6651,51215.58295,-85,3997,90,Retrograde-9,25,1,0
Flight 10,488891.8051,51092.34651,-85,3997,90,Retrograde-9,25,0,0
Flight 10,488891.9451,50968.91637,-85,3996,90,Retrograde-9,25,1,0
Flight 10,488892.0851,50845.30736,-85,3996,90,Retrograde-9,25,0,0
Flight 10,488892.2251,50721.5087,-84,3996,90,Retrograde-9,25,0,1
Flight 10,488892.3651,50597.52619,-85,3995,90,Retrograde-9,25,1,-1
Flight 10,488892.5051,50473.35984,-85,3995,90,Retrograde-9,25,0,0
Flight 10,488892.6451,50349.00477,-84,3995,90,Retrograde-9,25,0,1
Flight 10,488892.7851,50224.46154,-84,3995,90,Retrograde-9,25,0,0
Flight 10,488892.9251,50099.73484,-84,3995,90,Retrograde-9,25,0,0
Flight 10,488893.0651,49974.82035,-84,3995,90,Retrograde-9,25,0,0
Flight 10,488893.2051,49849.7223,-84,3995,90,Retrograde-9,25,0,0
Flight 10,488893.3451,49724.43891,-84,3995,90,Retrograde-9,25,0,0
Flight 10,488893.4851,49598.97441,-84,3994,90,Retrograde-9,25,1,0
Flight 10,488893.6251,49473.32371,-84,3994,90,Retrograde-9,25,0,0
Flight 10,488893.7651,49347.48419,-84,3993,90,Retrograde-9,25,1,0
Flight 10,488893.9051,49221.46185,-84,3993,90,Retrograde-9,25,0,0
Flight 10,488894.0451,49095.25381,-84,3992,90,Retrograde-9,25,1,0
Flight 10,488894.1851,48968.86136,-83,3992,90,Retrograde-9,25,0,1
Flight 10,488894.3251,48842.28102,-83,3991,90,Retrograde-9,25,1,0
Flight 10,488894.4651,48715.52061,-83,3991,90,Retrograde-9,25,0,0
Flight 10,488894.6051,48588.577,-83,3991,90,Retrograde-9,25,0,0
Flight 10,488894.7451,48461.44373,-83,3991,90,Retrograde-9,25,0,0
Flight 10,488894.8851,48334.12849,-83,3991,90,Retrograde-9,25,0,0
Flight 10,488895.0251,48206.62575,-83,3991,90,Retrograde-9,25,0,0
Flight 10,488895.1651,48078.94226,-83,3991,90,Retrograde-9,25,0,0
Flight 10,488895.3051,47951.07314,-83,3991,90,Retrograde-9,25,0,0
Flight 10,488895.4451,47823.0245,-82,3990,90,Retrograde-9,25,1,1
Flight 10,488895.5851,47694.78347,-83,3990,90,Retrograde-9,25,0,-1
Flight 10,488895.7251,47566.36133,-83,3990,90,Retrograde-9,25,0,0
Flight 10,488895.8651,47437.75515,-82,3989,90,Retrograde-9,25,1,1
Flight 10,488896.0051,47308.96541,-82,3988,90,Retrograde-9,25,1,0
Flight 10,488896.1451,47179.99098,-82,3988,90,Retrograde-9,25,0,0
Flight 10,488896.2851,47050.83428,-82,3988,90,Retrograde-9,25,0,0
Flight 10,488896.4251,46921.50024,-82,3987,90,Retrograde-9,25,1,0
Flight 10,488896.5651,46791.97595,-81,3987,90,Retrograde-9,25,0,1
Flight 10,488896.7051,46662.27091,-81,3987,90,Retrograde-9,25,0,0
Flight 10,488896.8451,46532.38082,-81,3987,90,Retrograde-9,25,0,0
Flight 10,488896.9851,46402.30847,-81,3986,90,Retrograde-9,25,1,0
Flight 10,488897.1251,46272.05049,-81,3986,90,Retrograde-9,25,0,0
Flight 10,488897.2651,46141.61485,-81,3986,90,Retrograde-9,25,0,0
Flight 10,488897.4051,46010.99049,-81,3985,90,Retrograde-9,25,1,0
Flight 10,488897.5451,45880.19215,-80,3985,90,Retrograde-9,25,0,1
Flight 10,488897.6851,45749.20696,-80,3984,90,Retrograde-9,25,1,0
Flight 10,488897.8251,45618.03978,-80,3983,90,Retrograde-9,25,1,0
Flight 10,488897.9651,45486.69036,-80,3983,90,Retrograde-9,25,0,0
Flight 10,488898.1051,45355.1553,-80,3982,90,Retrograde-9,25,1,0
Flight 10,488898.2451,45223.44381,-80,3982,90,Retrograde-9,25,0,0
Flight 10,488898.3851,45091.55158,-79,3981,90,Retrograde-9,25,1,1
Flight 10,488898.5251,44959.47128,-79,3981,90,Retrograde-9,25,0,0
Flight 10,488898.6651,44827.21181,-79,3981,90,Retrograde-9,25,0,0
Flight 10,488898.8051,44694.7716,-79,3980,90,Retrograde-9,25,1,0
Flight 10,488898.9451,44562.15251,-79,3980,90,Retrograde-9,25,0,0
Flight 10,488899.0851,44429.34967,-79,3980,90,Retrograde-9,25,0,0
Flight 10,488899.2251,44296.37132,-78,3979,90,Retrograde-9,25,1,1
Flight 10,488899.3651,44163.20369,-78,3979,90,Retrograde-9,25,0,0
Flight 10,488899.5051,44029.85653,-78,3979,90,Retrograde-9,25,0,0
Flight 10,488899.6451,43896.33086,-77,3978,90,Retrograde-9,25,1,1
Flight 10,488899.7851,43762.62509,-77,3977,90,Retrograde-9,25,1,0
Flight 10,488899.9251,43628.74016,-77,3976,90,Retrograde-9,25,1,0
Flight 10,488900.0651,43494.67449,-76,3976,90,Retrograde-9,25,0,1
Flight 10,488900.2051,43360.42692,-76,3975,90,Retrograde-9,25,1,0
Flight 10,488900.3451,43226.00942,-76,3974,90,Retrograde-9,25,1,0
Flight 10,488900.4851,43091.40504,-76,3974,90,Retrograde-9,25,0,0
Flight 10,488900.6251,42956.62058,-76,3974,90,Retrograde-9,25,0,0
Flight 10,488900.7651,42821.65788,-76,3973,90,Retrograde-9,25,1,0
Flight 10,488900.9051,42686.51847,-75,3973,90,Retrograde-9,25,0,1
Flight 10,488901.0451,42551.19745,-75,3972,90,Retrograde-9,25,1,0
Flight 10,488901.1851,42415.69944,-75,3972,90,Retrograde-9,25,0,0
Flight 10,488901.3251,42280.02564,-74,3971,90,Retrograde-9,25,1,1
Flight 10,488901.4651,42144.17579,-74,3971,90,Retrograde-9,25,0,0
Flight 10,488901.6051,42008.1477,-74,3970,90,Retrograde-9,25,1,0
Flight 10,488901.7451,41871.93924,-74,3969,90,Retrograde-9,25,1,0
Flight 10,488901.8851,41735.55621,-73,3968,90,Retrograde-9,25,1,1
Flight 10,488902.0251,41598.9928,-73,3967,90,Retrograde-9,25,1,0
Flight 10,488902.1651,41462.2552,-73,3967,90,Retrograde-9,25,0,0
Flight 10,488902.3051,41325.34181,-72,3966,90,Retrograde-9,25,1,1
Flight 10,488902.4451,41188.25423,-72,3965,90,Retrograde-9,25,1,0
Flight 10,488902.5851,41050.99332,-72,3964,90,Retrograde-9,25,1,0
Flight 10,488902.7251,40913.557,-72,3964,90,Retrograde-9,25,0,0
Flight 10,488902.8651,40775.94273,-71,3963,90,Retrograde-9,25,1,1
Flight 10,488903.0051,40638.15614,-71,3963,90,Retrograde-9,25,0,0
Flight 10,488903.1451,40500.19161,-71,3962,90,Retrograde-9,25,1,0
Flight 10,488903.2851,40362.05598,-70,3961,90,Retrograde-9,25,1,1
Flight 10,488903.4251,40223.74428,-70,3961,90,Retrograde-9,25,0,0
Flight 10,488903.5651,40085.26083,-70,3960,90,Retrograde-9,25,1,0
Flight 10,488903.7051,39946.60657,-70,3959,90,Retrograde-9,25,1,0
Flight 10,488903.8451,39807.78085,-69,3957,90,Retrograde-9,25,2,1
Flight 10,488903.9851,39668.77604,-69,3957,90,Retrograde-9,25,0,0
Flight 10,488904.1251,39529.60595,-68,3955,90,Retrograde-9,25,2,1
Flight 10,488904.2651,39390.26073,-68,3954,90,Retrograde-9,25,1,0
Flight 10,488904.4051,39250.74779,-68,3953,90,Retrograde-9,25,1,0
Flight 10,488904.5451,39111.05943,-67,3953,90,Retrograde-9,25,0,1
Flight 10,488904.6851,38971.20486,-67,3952,90,Retrograde-9,25,1,0
Flight 10,488904.8251,38831.18228,-66,3951,90,Retrograde-9,25,1,1
Flight 10,488904.9651,38690.98672,-66,3950,90,Retrograde-9,25,1,0
Flight 10,488905.1051,38550.6241,-65,3949,90,Retrograde-9,25,1,1
Flight 10,488905.2451,38410.09404,-65,3949,90,Retrograde-9,25,0,0
Flight 10,488905.3851,38269.38977,-64,3947,90,Retrograde-9,25,2,1
Flight 10,488905.5251,38128.52276,-64,3946,90,Retrograde-9,25,1,0
Flight 10,488905.6651,37987.48924,-64,3945,90,Retrograde-9,25,1,0
Flight 10,488905.8051,37846.28866,-64,3944,90,Retrograde-9,25,1,0
Flight 10,488905.9451,37704.92761,-63,3943,90,Retrograde-9,25,1,1
Flight 10,488906.0851,37563.39791,-62,3941,90,Retrograde-9,25,2,1
Flight 10,488906.2251,37421.70222,-62,3940,90,Retrograde-9,25,1,0
Flight 10,488906.3651,37279.83974,-61,3939,90,Retrograde-9,25,1,1
Flight 10,488906.5051,37137.81111,-61,3937,90,Retrograde-9,25,2,0
Flight 10,488906.6451,36995.6211,-61,3936,90,Retrograde-9,25,1,0
Flight 10,488906.7851,36853.2725,-60,3936,90,Retrograde-9,25,0,1
Flight 10,488906.9251,36710.75805,-59,3934,90,Retrograde-9,25,2,1
Flight 10,488907.0651,36568.08775,-59,3933,90,Retrograde-9,25,1,0
Flight 10,488907.2051,36425.25318,-59,3932,90,Retrograde-9,25,1,0
Flight 10,488907.3451,36282.25599,-58,3931,90,Retrograde-9,25,1,1
Flight 10,488907.4851,36139.1013,-57,3929,90,Retrograde-9,25,2,1
Flight 10,488907.6251,35995.78895,-57,3928,90,Retrograde-9,25,1,0
Flight 10,488907.7651,35852.3191,-56,3926,90,Retrograde-9,25,2,1
Flight 10,488907.9051,35708.69512,-56,3925,90,Retrograde-9,25,1,0
Flight 10,488908.0451,35564.91256,-55,3923,90,Retrograde-9,25,2,1
Flight 10,488908.1851,35420.97574,-54,3922,90,Retrograde-9,25,1,1
Flight 10,488908.3251,35276.88219,-54,3920,90,Retrograde-9,25,2,0
Flight 10,488908.4651,35132.63517,-53,3918,90,Retrograde-9,25,2,1
Flight 10,488908.6051,34988.23142,-52,3917,90,Retrograde-9,25,1,1
Flight 10,488908.7451,34843.68204,-52,3916,90,Retrograde-9,25,1,0
Flight 10,488908.8851,34698.97659,-51,3914,90,Retrograde-9,25,2,1
Flight 10,488909.0251,34554.12105,-51,3913,90,Retrograde-9,25,1,0
Flight 10,488909.1651,34409.11634,-50,3911,90,Retrograde-9,25,2,1
Flight 10,488909.3051,34263.96909,-49,3910,90,Retrograde-9,15,1,1
Flight 10,488909.4451,34118.66732,-49,3908,90,Retrograde-9,15,2,0
Flight 10,488909.5851,33973.21796,-48,3906,90,Retrograde-9,15,2,1
Flight 10,488909.7251,33827.62352,-47,3905,90,Retrograde-9,15,1,1
Flight 10,488909.8651,33681.88441,-46,3903,90,Retrograde-9,15,2,1
Flight 10,488910.0051,33536.00085,-45,3901,90,Retrograde-9,15,2,1
Flight 10,488910.1451,33389.97492,-44,3900,90,Retrograde-9,15,1,1
Flight 10,488910.2851,33243.80963,-44,3898,90,Retrograde-9,15,2,0
Flight 10,488910.4251,33097.50566,-43,3895,90,Retrograde-9,15,3,1
Flight 10,488910.5651,32951.06134,-42,3893,90,Retrograde-9,15,2,1
Flight 10,488910.7051,32804.48272,-41,3891,90,Retrograde-9,15,2,1
Flight 10,488910.8451,32657.76669,-40,3890,90,Retrograde-9,15,1,1
Flight 10,488910.9851,32510.91603,-40,3888,90,Retrograde-9,15,2,0
Flight 10,488911.1251,32363.93369,-39,3886,90,Retrograde-9,15,2,1
Flight 10,488911.2651,32216.81883,-39,3883,90,Retrograde-9,15,3,0
Flight 10,488911.4051,32069.57506,-38,3881,90,Retrograde-9,15,2,1
Flight 10,488911.5451,31922.20341,-37,3878,90,Retrograde-9,15,3,1
Flight 10,488911.6851,31774.70651,-36,3875,90,Retrograde-9,15,3,1
Flight 10,488911.8251,31627.08055,-36,3872,90,Retrograde-9,15,3,0
Flight 10,488911.9651,31479.3315,-35,3869,90,Retrograde-9,15,3,1
Flight 10,488912.1051,31331.46216,-35,3866,90,Retrograde-9,15,3,0
Flight 10,488912.2451,31183.46502,-34,3863,90,Retrograde-9,15,3,1
Flight 10,488912.3851,31035.35163,-33,3860,90,Retrograde-9,15,3,1
Flight 10,488912.5251,30887.11734,-32,3857,90,Retrograde-9,15,3,1
Flight 10,488912.6651,30738.76712,-32,3855,90,Retrograde-9,15,2,0
Flight 10,488912.8051,30590.30402,-31,3852,90,Retrograde-9,15,3,1
Flight 10,488912.9451,30441.72701,-30,3850,90,Retrograde-9,15,2,1
Flight 10,488913.0851,30293.04068,-30,3847,90,Retrograde-9,15,3,0
Flight 10,488913.2251,30144.23985,-29,3844,90,Retrograde-9,15,3,1
Flight 10,488913.3651,29995.3305,-28,3841,90,Retrograde-9,15,3,1
Flight 10,488913.5051,29846.31713,-27,3838,90,Retrograde-9,20,3,1
Flight 10,488913.6451,29697.19709,-26,3835,90,Retrograde-9,20,3,1
Flight 10,488913.7851,29547.978,-25,3832,90,Retrograde-9,20,3,1
Flight 10,488913.9251,29398.66017,-24,3828,90,Retrograde-9,20,4,1
Flight 10,488914.0651,29249.24773,-23,3825,90,Retrograde-9,20,3,1
Flight 10,488914.2051,29099.73838,-22,3821,90,Retrograde-9,20,4,1
Flight 10,488914.3451,28950.13813,-21,3818,90,Retrograde-9,20,3,1
Flight 10,488914.4851,28800.4441,-20,3815,90,Retrograde-9,20,3,1
Flight 10,488914.6251,28650.66334,-19,3811,90,Retrograde-9,15,4,1
Flight 10,488914.7651,28500.79777,-17,3808,90,Retrograde-9,15,3,2
Flight 10,488914.9051,28350.84596,-16,3805,90,Retrograde-9,15,3,1
Flight 10,488915.0451,28200.8135,-15,3802,90,Retrograde-9,15,3,1
Flight 10,488915.1851,28050.70682,-14,3799,90,Retrograde-9,15,3,1
Flight 10,488915.3251,27900.52457,-13,3795,90,Retrograde-9,15,4,1
Flight 10,488915.4651,27750.27061,-12,3791,90,Retrograde-9,15,4,1
Flight 10,488915.6051,27599.94435,-11,3787,90,Retrograde-9,15,4,1
Flight 10,488915.7451,27449.55117,-9,3784,90,Retrograde-9,10,3,2
Flight 10,488915.8851,27299.09139,-8,3780,90,Retrograde-9,10,4,1
Flight 10,488916.0251,27148.56982,-7,3776,90,Retrograde-9,10,4,1
Flight 10,488916.1651,26997.99276,-5,3771,90,Retrograde-9,10,5,2
Flight 10,488916.3051,26847.35852,-4,3768,90,Retrograde-9,10,3,1
Flight 10,488916.4451,26696.67561,-3,3763,90,Retrograde-9,0,5,1
Flight 10,488916.5851,26545.94092,-2,3758,90,Retrograde-9,0,5,1
Flight 10,488916.7251,26395.16114,-1,3755,90,Retrograde-9,0,3,1
Flight 10,488916.8651,26244.34026,1,3750,90,Retrograde-9,0,5,2
Flight 10,488917.0051,26093.48675,2,3747,90,Retrograde-9,350,3,1
Flight 10,488917.1451,25942.60241,3,3741,90,Retrograde-9,350,6,1
Flight 10,488917.2851,25791.6896,4,3737,90,Retrograde-9,350,4,1
Flight 10,488917.4251,25640.7562,5,3732,90,Retrograde-9,345,5,1
Flight 10,488917.5651,25489.79971,6,3726,90,Retrograde-9,345,6,1
Flight 10,488917.7051,25338.82449,6,3722,90,Retrograde-9,345,4,0
Flight 10,488917.8451,25187.83782,7,3716,90,Retrograde-9,345,6,1
Flight 10,488917.9851,25036.84166,8,3711,90,Retrograde-9,345,5,1
Flight 10,488918.1251,24885.84263,8,3705,90,Retrograde-9,345,6,0
Flight 10,488918.2651,24734.84262,8,3700,90,Retrograde-9,345,5,0
Flight 10,488918.4051,24583.84746,9,3694,90,Retrograde-9,345,6,1
Flight 10,488918.5451,24432.86059,8,3689,90,Retrograde-9,345,5,-1
Flight 10,488918.6851,24281.88829,8,3682,90,Retrograde-9,345,7,0
Flight 10,488918.8251,24130.9329,8,3676,90,Retrograde-9,345,6,0
Flight 10,488918.9651,23980.0032,9,3671,90,Retrograde-9,345,5,1
Flight 10,488919.1051,23829.10045,8,3665,90,Retrograde-9,345,6,-1
Flight 10,488919.2451,23678.23111,9,3659,90,Retrograde-9,345,6,1
Flight 10,488919.3851,23527.40105,8,3652,90,Retrograde-9,345,7,-1
Flight 10,488919.5251,23376.61693,8,3646,90,Retrograde-9,345,6,0
Flight 10,488919.6651,23225.88226,8,3639,90,Retrograde-9,345,7,0
Flight 10,488919.8051,23075.20416,7,3632,90,Retrograde-9,345,7,-1
Flight 10,488919.9451,22924.58958,7,3626,90,Retrograde-9,345,6,0
Flight 10,488920.0851,22774.04457,6,3619,90,Retrograde-9,345,7,-1
Flight 10,488920.2251,22623.57493,6,3612,90,Retrograde-9,345,7,0
Flight 10,488920.3651,22473.18812,6,3604,90,Retrograde-9,345,8,0
Flight 10,488920.5051,22322.8869,6,3598,90,Retrograde-9,345,6,0
Flight 10,488920.6451,22172.6798,5,3589,90,Retrograde-9,345,9,-1
Flight 10,488920.7851,22022.57174,5,3581,90,Retrograde-9,345,8,0
Flight 10,488920.9251,21872.57075,4,3574,90,Retrograde-9,350,7,-1
Flight 10,488921.0651,21722.68332,4,3567,90,Retrograde-9,350,7,0
Flight 10,488921.2051,21572.91874,3,3560,90,Retrograde-9,350,7,-1
Flight 10,488921.3451,21423.28273,2,3551,90,Retrograde-9,350,9,-1
Flight 10,488921.4851,21273.78452,2,3543,90,Retrograde-9,350,8,0
Flight 10,488921.6251,21124.42552,2,3535,90,Retrograde-9,350,8,0
Flight 10,488921.7651,20975.21917,1,3528,90,Retrograde-9,0,7,-1
Flight 10,488921.9051,20826.17138,1,3519,90,Retrograde-9,0,9,0
Flight 10,488922.0451,20677.28986,1,3512,90,Retrograde-9,0,7,0
Flight 10,488922.1851,20528.58326,1,3502,90,Retrograde-9,0,10,0
Flight 10,488922.3251,20380.0653,1,3493,90,Retrograde-9,0,9,0
Flight 10,488922.4651,20231.73446,1,3484,90,Retrograde-9,0,9,0
Flight 10,488922.6051,20083.60773,1,3476,90,Retrograde-9,0,8,0
Flight 10,488922.7451,19935.68729,1,3467,90,Retrograde-9,0,9,0
Flight 10,488922.8851,19787.9858,2,3455,90,Retrograde-9,350,12,1
Flight 10,488923.0251,19640.51117,3,3446,90,Retrograde-9,350,9,1
Flight 10,488923.1651,19493.27393,3,3438,90,Retrograde-9,350,8,0
Flight 10,488923.3051,19346.27886,3,3430,90,Retrograde-9,350,8,0
Flight 10,488923.4451,19199.54294,4,3419,90,Retrograde-9,350,11,1
Flight 10,488923.5851,19053.06957,4,3410,90,Retrograde-9,350,9,0
Flight 10,488923.7251,18906.8665,5,3400,90,Retrograde-9,345,10,1
Flight 10,488923.8651,18760.94561,5,3391,90,Retrograde-9,345,9,0
Flight 10,488924.0051,18615.31727,6,3382,90,Retrograde-9,345,9,1
Flight 10,488924.1451,18469.98888,6,3371,90,Retrograde-9,345,11,0
Flight 10,488924.2851,18324.97202,5,3361,90,Retrograde-9,345,10,-1
Flight 10,488924.4251,18180.27611,6,3351,90,Retrograde-9,345,10,1
Flight 10,488924.5651,18035.91121,6,3340,90,Retrograde-9,345,11,0
Flight 10,488924.7051,17891.88825,6,3330,90,Retrograde-9,345,10,0
Flight 10,488924.8451,17748.21773,6,3320,90,Retrograde-9,345,10,0
Flight 10,488924.9851,17604.91008,5,3308,90,Retrograde-9,345,12,-1
Flight 10,488925.1251,17461.9772,5,3297,90,Retrograde-9,345,11,0
Flight 10,488925.2651,17319.42872,5,3286,90,Retrograde-9,345,11,0
Flight 10,488925.4051,17177.27566,4,3277,90,Retrograde-9,350,9,-1
Flight 10,488925.5451,17035.53155,4,3264,90,Retrograde-9,350,13,0
Flight 10,488925.6851,16894.21003,3,3253,90,Retrograde-9,350,11,-1
Flight 10,488925.8251,16753.31699,3,3243,90,Retrograde-9,350,10,0
Flight 10,488925.9651,16612.8649,2,3231,90,Retrograde-9,350,12,-1
Flight 10,488926.1051,16472.8642,2,3218,90,Retrograde-9,350,13,0
Flight 10,488926.2451,16333.32686,2,3204,90,Retrograde-9,350,14,0
Flight 10,488926.3851,16194.26306,2,3194,90,Retrograde-9,350,10,0
Flight 10,488926.5251,16055.68309,1,3181,90,Retrograde-9,0,13,-1
Flight 10,488926.6651,15917.59898,1,3167,90,Retrograde-9,0,14,0
Flight 10,488926.8051,15780.01871,1,3154,90,Retrograde-9,0,13,0
Flight 10,488926.9451,15642.95026,0,3141,90,Retrograde-9,0,13,-1
Flight 10,488927.0851,15506.40377,0,3130,90,Retrograde-9,0,11,0
Flight 10,488927.2251,15370.38981,0,3116,90,Retrograde-9,0,14,0
Flight 10,488927.3651,15234.9143,1,3103,90,Retrograde-9,0,13,1
Flight 10,488927.5051,15099.98652,0,3093,90,Retrograde-9,0,10,-1
Flight 10,488927.6451,14965.61677,1,3080,90,Retrograde-9,0,13,1
Flight 10,488927.7851,14831.81017,2,3068,90,Retrograde-9,350,12,1
Flight 10,488927.9251,14698.57393,2,3058,90,Retrograde-9,350,10,0
Flight 10,488928.0651,14565.92042,3,3046,90,Retrograde-9,350,12,1
Flight 10,488928.2051,14433.85397,3,3033,90,Retrograde-9,350,13,0
Flight 10,488928.3451,14302.38192,3,3021,90,Retrograde-9,350,12,0
Flight 10,488928.4851,14171.51338,3,3011,90,Retrograde-9,350,10,0
Flight 10,488928.6251,14041.2565,3,2997,90,Retrograde-9,350,14,0
Flight 10,488928.7651,13911.61933,3,2987,90,Retrograde-9,350,10,0
Flight 10,488928.9051,13782.60988,3,2973,90,Retrograde-9,350,14,0
Flight 10,488929.0451,13654.23418,3,2961,90,Retrograde-9,350,12,0
Flight 10,488929.1851,13526.50421,3,2948,90,Retrograde-9,350,13,0
Flight 10,488929.3251,13399.42662,2,2936,90,Retrograde-9,350,12,-1
Flight 10,488929.4651,13273.00734,2,2923,90,Retrograde-9,350,13,0
Flight 10,488929.6051,13147.2576,1,2912,90,Retrograde-9,0,11,-1
Flight 10,488929.7451,13022.18182,1,2898,90,Retrograde-9,0,14,0
Flight 10,488929.8851,12897.78961,0,2885,90,Retrograde-9,0,13,-1
Flight 10,488930.0251,12774.08694,0,2874,90,Retrograde-9,0,11,0
Flight 10,488930.1651,12651.07994,0,2859,90,Retrograde-9,0,15,0
Flight 10,488930.3051,12528.77665,-1,2846,90,Retrograde-9,0,13,-1
Flight 10,488930.4451,12407.18049,0,2833,90,Retrograde-9,0,13,1
Flight 10,488930.5851,12286.29662,0,2821,90,Retrograde-9,0,12,0
Flight 10,488930.7251,12166.12972,0,2808,90,Retrograde-9,0,13,0
Flight 10,488930.8651,12046.68027,0,2795,90,Retrograde-9,0,13,0
Flight 10,488931.0051,11927.95507,0,2782,90,Retrograde-9,0,13,0
Flight 10,488931.1451,11809.956,0,2770,90,Retrograde-9,0,12,0
Flight 10,488931.2851,11692.68514,0,2757,90,Retrograde-9,0,13,0
Flight 10,488931.4251,11576.14547,0,2745,90,Retrograde-9,0,12,0
Flight 10,488931.5651,11460.34092,0,2733,90,Retrograde-9,0,12,0
Flight 10,488931.7051,11345.27181,0,2723,90,Retrograde-9,0,10,0
Flight 10,488931.8451,11230.94208,0,2709,90,Retrograde-9,0,14,0
Flight 10,488931.9851,11117.35166,0,2700,90,Retrograde-9,0,9,0
Flight 10,488932.1251,11004.50623,0,2687,90,Retrograde-9,0,13,0
Flight 10,488932.2651,10892.40882,0,2675,90,Retrograde-9,0,12,0
Flight 10,488932.4051,10781.05918,0,2665,90,Retrograde-9,0,10,0
Flight 10,488932.5451,10670.46354,0,2652,90,Retrograde-9,0,13,0
Flight 10,488932.6851,10560.62058,0,2641,90,Retrograde-9,0,11,0
Flight 10,488932.8251,10451.53154,0,2631,90,Retrograde-9,0,10,0
Flight 10,488932.9651,10343.19941,0,2618,90,Retrograde-9,0,13,0
Flight 10,488933.1051,10235.62509,-1,2606,90,Retrograde-9,0,12,-1
Flight 10,488933.2451,10128.81174,-1,2594,90,Retrograde-9,0,12,0
Flight 10,488933.3851,10022.7575,-1,2582,90,Retrograde-9,0,12,0
Flight 10,488933.5251,9917.465429,-1,2572,90,Retrograde-9,0,10,0
Flight 10,488933.6651,9812.935284,-2,2559,90,Retrograde-9,0,13,-1
Flight 10,488933.8051,9709.16736,-1,2547,90,Retrograde-9,0,12,1
Flight 10,488933.9451,9606.161647,-2,2535,90,Retrograde-9,0,12,-1
Flight 10,488934.0851,9503.917596,-2,2525,90,Retrograde-9,0,10,0
Flight 10,488934.2251,9402.434494,-2,2512,90,Retrograde-9,0,13,0
Flight 10,488934.3651,9301.711343,-2,2501,90,Retrograde-9,0,11,0
Flight 10,488934.5051,9201.747881,-3,2489,90,Retrograde-9,0,12,-1
Flight 10,488934.6451,9102.542408,-3,2480,90,Retrograde-9,0,9,0
Flight 10,488934.7851,9004.093295,-3,2467,90,Retrograde-9,0,13,0
Flight 10,488934.9251,8906.399293,-3,2456,90,Retrograde-9,0,11,0
Flight 10,488935.0651,8809.458232,-4,2446,90,Retrograde-9,10,10,-1
Flight 10,488935.2051,8713.267101,-3,2435,90,Retrograde-9,0,11,1
Flight 10,488935.3451,8617.826752,-4,2423,90,Retrograde-9,10,12,-1
Flight 10,488935.4851,8523.132508,-4,2412,90,Retrograde-9,10,11,0
Flight 10,488935.6251,8429.18274,-4,2402,90,Retrograde-9,10,10,0
Flight 10,488935.7651,8335.976458,-4,2390,90,Retrograde-9,10,12,0
Flight 10,488935.9051,8243.508812,-4,2379,90,Retrograde-9,10,11,0
Flight 10,488936.0451,8151.779135,-3,2368,90,Retrograde-9,0,11,1
Flight 10,488936.1851,8060.784953,-3,2359,90,Retrograde-9,0,9,0
Flight 10,488936.3251,7970.521492,-2,2347,90,Retrograde-9,0,12,1
Flight 10,488936.4651,7880.98511,-1,2337,90,Retrograde-9,0,10,1
Flight 10,488936.6051,7792.171512,-1,2327,90,Retrograde-9,0,10,0
Flight 10,488936.7451,7704.076707,-1,2317,90,Retrograde-9,0,10,0
Flight 10,488936.8851,7616.694753,-1,2308,90,Retrograde-9,0,9,0
Flight 10,488937.0251,7530.022722,-1,2299,90,Retrograde-9,0,9,0
Flight 10,488937.1651,7444.056668,-1,2288,90,Retrograde-9,0,11,0
Flight 10,488937.3051,7358.792485,0,2279,90,Retrograde-9,0,9,1
Flight 10,488937.4451,7274.226252,-1,2269,90,Retrograde-9,0,10,-1
Flight 10,488937.5851,7190.353936,0,2261,90,Retrograde-9,0,8,1
Flight 10,488937.7251,7107.17197,-1,2250,90,Retrograde-9,0,11,-1
Flight 10,488937.8651,7024.675966,-1,2241,90,Retrograde-9,0,9,0
Flight 10,488938.0051,6942.862123,-1,2233,90,Retrograde-9,0,8,0
Flight 10,488938.1451,6861.726101,-1,2222,90,Retrograde-9,0,11,0
Flight 10,488938.2851,6781.264748,-1,2212,90,Retrograde-9,0,10,0
Flight 10,488938.4251,6701.472992,-1,2204,90,Retrograde-9,0,8,0
Flight 10,488938.5651,6622.346224,-2,2194,90,Retrograde-9,0,10,-1
Flight 10,488938.7051,6543.880986,-2,2186,90,Retrograde-9,0,8,0
Flight 10,488938.8451,6466.071976,-2,2177,90,Retrograde-9,0,9,0
Flight 10,488938.9851,6388.915976,-3,2168,90,Retrograde-9,0,9,-1
Flight 10,488939.1251,6312.404682,-3,2160,90,Retrograde-9,0,8,0
Flight 10,488939.2651,6236.536028,-3,2151,90,Retrograde-9,0,9,0
Flight 10,488939.4051,6161.304597,-3,2143,90,Retrograde-9,0,8,0
Flight 10,488939.5451,6086.706406,-3,2135,90,Retrograde-9,0,8,0
Flight 10,488939.6851,6012.736112,-3,2127,90,Retrograde-9,0,8,0
Flight 10,488939.8251,5939.389039,-3,2117,90,Retrograde-9,0,10,0
Flight 10,488939.9651,5866.66077,-4,2109,90,Retrograde-9,10,8,-1
Flight 10,488940.1051,5794.546135,-4,2101,90,Retrograde-9,10,8,0
Flight 10,488940.2451,5723.042072,-4,2093,90,Retrograde-9,10,8,0
Flight 10,488940.3851,5652.143585,-4,2084,90,Retrograde-9,10,9,0
Flight 10,488940.5251,5581.845621,-4,2075,90,Retrograde-9,10,9,0
Flight 10,488940.6651,5512.143625,-4,2068,90,Retrograde-9,10,7,0
Flight 10,488940.8051,5443.03285,-3,2061,90,Retrograde-9,0,7,1
Flight 10,488940.9451,5374.509083,-3,2053,90,Retrograde-9,0,8,0
Flight 10,488941.0851,5306.567318,-2,2047,90,Retrograde-9,0,6,1
Flight 10,488941.2251,5239.202552,-2,2038,90,Retrograde-9,0,9,0
Flight 10,488941.3651,5172.407714,-1,2031,90,Retrograde-9,0,7,1
Flight 10,488941.5051,5106.177892,-1,2024,90,Retrograde-9,0,7,0
Flight 10,488941.6451,5040.507247,-1,2017,90,Retrograde-9,0,7,0
Flight 10,488941.7851,4975.390587,-1,2012,90,Retrograde-9,0,5,0
Flight 10,488941.9251,4910.821921,0,2004,90,Retrograde-9,0,8,1
Flight 10,488942.0651,4846.797442,0,1997,90,Retrograde-9,0,7,0
Flight 10,488942.2051,4783.3107,-1,1990,90,Retrograde-9,0,7,-1
Flight 10,488942.3451,4720.356423,0,1983,90,Retrograde-9,0,7,1
Flight 10,488942.4851,4657.930498,-1,1977,90,Retrograde-9,0,6,-1
Flight 10,488942.6251,4596.027357,-1,1970,90,Retrograde-9,0,7,0
Flight 10,488942.7651,4534.642034,-1,1963,90,Retrograde-9,0,7,0
Flight 10,488942.9051,4473.769121,-1,1958,90,Retrograde-9,0,5,0
Flight 10,488943.0451,4413.404876,-1,1951,90,Retrograde-9,0,7,0
Flight 10,488943.1851,4353.542884,-1,1945,90,Retrograde-9,0,6,0
Flight 10,488943.3251,4294.178058,-1,1940,90,Retrograde-9,0,5,0
Flight 10,488943.4651,4235.305972,-1,1934,90,Retrograde-9,0,6,0
Flight 10,488943.6051,4176.921713,-2,1928,90,Retrograde-9,0,6,-1
Flight 10,488943.7451,4119.019421,-2,1922,90,Retrograde-9,0,6,0
Flight 10,488943.8851,4061.594,-2,1916,90,Retrograde-9,0,6,0
Flight 10,488944.0251,4004.639576,-2,1911,90,Retrograde-9,0,5,0
Flight 10,488944.1651,3948.151629,-2,1906,90,Retrograde-9,0,5,0
Flight 10,488944.3051,3892.12379,-2,1900,90,Retrograde-9,0,6,0
Flight 10,488944.4451,3836.55116,-2,1894,90,Retrograde-9,0,6,0
Flight 10,488944.5851,3781.428666,-2,1888,90,Retrograde-9,0,6,0
Flight 10,488944.7251,3726.750188,-3,1883,90,Retrograde-9,0,5,-1
Flight 10,488944.8651,3672.51085,-3,1877,90,Retrograde-9,0,6,0
Flight 10,488945.0051,3618.704944,-3,1871,90,Retrograde-9,0,6,0
Flight 10,488945.1451,3565.326809,-3,1866,90,Retrograde-9,0,5,0
Flight 10,488945.2851,3512.371474,-3,1862,90,Retrograde-9,0,4,0
Flight 10,488945.4251,3459.833386,-3,1857,90,Retrograde-9,0,5,0
Flight 10,488945.5651,3407.707234,-3,1853,90,Retrograde-9,0,4,0
Flight 10,488945.7051,3355.986932,-3,1848,90,Retrograde-9,0,5,0
Flight 10,488945.8451,3304.668144,-3,1844,90,Retrograde-9,0,4,0
Flight 10,488945.9851,3253.745202,-3,1839,90,Retrograde-9,0,5,0
Flight 10,488946.1251,3203.212217,-3,1835,90,Retrograde-9,0,4,0
Flight 10,488946.2651,3153.065021,-3,1830,90,Retrograde-9,0,5,0
Flight 10,488946.4051,3103.29734,-3,1825,90,Retrograde-9,0,5,0
Flight 10,488946.5451,3053.904818,-3,1821,90,Retrograde-9,0,4,0
Flight 10,488946.6851,3004.882134,-4,1817,90,Retrograde-9,10,4,-1
Flight 10,488946.8251,2956.224283,-4,1812,90,Retrograde-9,10,5,0
Flight 10,488946.9651,2907.927923,-4,1808,90,Retrograde-9,10,4,0
Flight 10,488947.1051,2859.987603,-4,1804,90,Retrograde-9,10,4,0
Flight 10,488947.2451,2812.397369,-3,1799,90,Retrograde-9,0,5,1
Flight 10,488947.3851,2765.153455,-3,1796,90,Retrograde-9,0,3,0
Flight 10,488947.5251,2718.253489,-3,1793,90,Retrograde-9,0,3,0
Flight 10,488947.6651,2671.6892,-2,1790,90,Retrograde-9,0,3,1
Flight 10,488947.8051,2625.455537,-2,1786,90,Retrograde-9,0,4,0
Flight 10,488947.9451,2579.547111,-2,1782,90,Retrograde-9,0,4,0
Flight 10,488948.0851,2533.959942,-2,1778,90,Retrograde-9,0,4,0
Flight 10,488948.2251,2488.688488,-2,1775,90,Retrograde-9,0,3,0
Flight 10,488948.3651,2443.72799,-2,1772,90,Retrograde-9,0,3,0
Flight 10,488948.5051,2399.074296,-1,1768,90,Retrograde-9,0,4,1
Flight 10,488948.6451,2354.722563,-2,1764,90,Retrograde-9,0,4,-1
Flight 10,488948.7851,2310.668586,-1,1761,90,Retrograde-9,0,3,1
Flight 10,488948.9251,2266.907551,-1,1758,90,Retrograde-9,0,3,0
Flight 10,488949.0651,2223.435503,-1,1754,90,Retrograde-9,0,4,0
Flight 10,488949.2051,2180.247793,-1,1751,90,Retrograde-9,0,3,0
Flight 10,488949.3451,2137.340677,-1,1747,90,Retrograde-9,0,4,0
Flight 10,488949.4851,2094.709866,-1,1745,90,Retrograde-9,0,2,0
Flight 10,488949.6251,2052.35088,-1,1743,90,Retrograde-9,0,2,0
Flight 10,488949.7651,2010.260493,-1,1740,90,Retrograde-9,0,3,0
Flight 10,488949.9051,1968.434131,-1,1738,90,Retrograde-9,0,2,0
Flight 10,488950.0451,1926.867051,0,1734,90,Retrograde-9,0,4,1
Flight 10,488950.1851,1885.554186,0,1732,90,Retrograde-9,0,2,0
Flight 10,488950.3251,1844.48983,0,1730,90,Retrograde-9,0,2,0
Flight 10,488950.4651,1803.66785,0,1727,90,Retrograde-9,0,3,0
Flight 11,488804.7096,84223.44216,6,3536,90,Retrograde-8,345,-1809,6
Flight 11,488804.9496,84130.80534,10,3535,90,Retrograde-8,345,1,4
Flight 11,488805.1896,84037.62263,8,3536,90,Retrograde-8,345,-1,-2
Flight 11,488805.4296,83943.88778,4,3537,90,Retrograde-8,345,-1,-4
Flight 11,488805.6696,83849.61192,-2,3540,90,Retrograde-8,0,-3,-6
Flight 11,488805.9096,83754.79065,-8,3541,90,Retrograde-8,15,-1,-6
Flight 11,488806.1496,83659.42163,-12,3542,90,Retrograde-8,15,-1,-4
Flight 11,488806.3896,83563.48951,-17,3543,90,Retrograde-8,15,-1,-5
Flight 11,488806.6296,83467.02123,-21,3544,90,Retrograde-8,15,-1,-4
Flight 11,488806.8696,83370.00333,-24,3545,90,Retrograde-8,15,-1,-3
Flight 11,488807.1096,83272.4358,-28,3547,90,Retrograde-8,15,-2,-4
Flight 11,488807.3496,83174.31815,-33,3549,90,Retrograde-8,15,-2,-5
Flight 11,488807.5896,83075.65785,-29,3547,90,Retrograde-8,15,2,4
Flight 11,488807.8296,82976.45425,-25,3546,90,Retrograde-8,15,1,4
Flight 11,488808.0696,82876.70986,-22,3546,90,Retrograde-8,15,0,3
Flight 11,488808.3096,82776.42404,-18,3545,90,Retrograde-8,15,1,4
Flight 11,488808.5496,82675.5968,-16,3544,90,Retrograde-8,15,1,2
Flight 11,488808.7896,82574.22876,-11,3544,90,Retrograde-8,15,0,5
Flight 11,488809.0296,82472.32117,-7,3544,90,Retrograde-8,15,0,4
Flight 11,488809.2696,82369.8684,-4,3544,90,Retrograde-8,15,0,3
Flight 11,488809.5096,82266.87973,-1,3544,90,Retrograde-8,0,0,3
Flight 11,488809.7496,82163.35084,3,3544,90,Retrograde-8,345,0,4
Flight 11,488809.9896,82059.27507,5,3543,90,Retrograde-8,345,1,2
Flight 11,488810.2296,81954.65845,9,3543,90,Retrograde-8,345,0,4
Flight 11,488810.4696,81849.50104,13,3542,90,Retrograde-8,345,1,4
Flight 11,488810.7096,81743.79968,16,3542,90,Retrograde-8,335,0,3
Flight 11,488810.9496,81637.5594,20,3543,90,Retrograde-8,335,-1,4
Flight 11,488811.1896,81530.77396,23,3543,90,Retrograde-8,335,0,3
Flight 11,488811.4296,81423.45317,27,3543,90,Retrograde-8,335,0,4
Flight 11,488811.6696,81315.58421,29,3543,90,Retrograde-8,335,0,2
Flight 11,488811.9096,81207.18494,33,3543,90,Retrograde-8,335,0,4
Flight 11,488812.1496,81098.22824,39,3543,90,Retrograde-8,335,0,6
Flight 11,488812.3896,80988.73237,38,3545,90,Retrograde-8,335,-2,-1
Flight 11,488812.6296,80878.68136,33,3547,90,Retrograde-8,335,-2,-5
Flight 11,488812.8696,80768.07942,29,3549,90,Retrograde-8,335,-2,-4
Flight 11,488813.1096,80656.9211,26,3551,90,Retrograde-8,335,-2,-3
Flight 11,488813.3496,80545.21079,23,3552,90,Retrograde-8,335,-1,-3
Flight 11,488813.5896,80432.95629,21,3554,90,Retrograde-8,335,-2,-2
Flight 11,488813.8296,80320.14119,18,3556,90,Retrograde-8,335,-2,-3
Flight 11,488814.0696,80206.7789,16,3556,90,Retrograde-8,335,0,-2
Flight 11,488814.3096,80092.86274,13,3557,90,Retrograde-8,345,-1,-3
Flight 11,488814.5496,79978.40319,12,3558,90,Retrograde-8,345,-1,-1
Flight 11,488814.7896,79863.39223,11,3558,90,Retrograde-8,345,0,-1
Flight 11,488815.0296,79747.82862,10,3559,90,Retrograde-8,345,-1,-1
Flight 11,488815.2696,79631.71114,8,3560,90,Retrograde-8,345,-1,-2
Flight 11,488815.5096,79515.04476,8,3560,90,Retrograde-8,345,0,0
Flight 11,488815.7496,79397.82152,8,3560,90,Retrograde-8,345,0,0
Flight 11,488815.9896,79280.0531,9,3560,90,Retrograde-8,345,0,1
Flight 11,488816.2296,79161.74064,9,3559,90,Retrograde-8,345,1,0
Flight 11,488816.4696,79042.86645,10,3559,90,Retrograde-8,345,0,1
Flight 11,488816.7096,78923.45633,12,3558,90,Retrograde-8,345,1,2
Flight 11,488816.9496,78803.49057,12,3558,90,Retrograde-8,345,0,0
Flight 11,488817.1896,78682.97281,12,3558,90,Retrograde-8,345,0,0
Flight 11,488817.4296,78561.90679,12,3559,90,Retrograde-8,345,-1,0
Flight 11,488817.6696,78440.28935,12,3559,90,Retrograde-8,345,0,0
Flight 11,488817.9096,78318.11504,11,3559,90,Retrograde-8,345,0,-1
Flight 11,488818.1496,78195.39312,11,3558,90,Retrograde-8,345,1,0
Flight 11,488818.3896,78072.11304,11,3558,90,Retrograde-8,345,0,0
Flight 11,488818.6296,77948.30012,10,3555,90,Retrograde-8,345,3,-1
Flight 11,488818.8696,77823.94446,9,3552,90,Retrograde-8,345,3,-1
Flight 11,488819.1096,77699.05531,8,3550,90,Retrograde-8,345,2,-1
Flight 11,488819.3496,77573.61855,7,3548,90,Retrograde-8,345,2,-1
Flight 11,488819.5896,77447.65756,6,3545,90,Retrograde-8,345,3,-1
Flight 11,488819.8296,77321.14645,4,3541,90,Retrograde-8,345,4,-2
Flight 11,488820.0696,77194.09763,3,3538,90,Retrograde-8,345,3,-1
Flight 11,488820.3096,77066.51468,2,3535,90,Retrograde-8,0,3,-1
Flight 11,488820.5496,76938.39021,1,3532,90,Retrograde-8,0,3,-1
Flight 11,488820.7896,76809.7329,0,3529,90,Retrograde-8,0,3,-1
Flight 11,488821.0296,76680.53473,0,3528,90,Retrograde-8,0,1,0
Flight 11,488821.2696,76550.79633,-2,3525,90,Retrograde-8,0,3,-2
Flight 11,488821.5096,76420.51828,-3,3522,90,Retrograde-8,15,3,-1
Flight 11,488821.7496,76289.70424,-4,3519,90,Retrograde-8,15,3,-1
Flight 11,488821.9896,76158.35923,-5,3516,90,Retrograde-8,15,3,-1
Flight 11,488822.2296,76026.46661,-6,3513,90,Retrograde-8,15,3,-1
Flight 11,488822.4696,75894.0466,-7,3510,90,Retrograde-8,15,3,-1
Flight 11,488822.7096,75761.08889,-8,3507,90,Retrograde-8,15,3,-1
Flight 11,488822.9496,75627.58593,-9,3505,90,Retrograde-8,15,2,-1
Flight 11,488823.1896,75493.54649,-10,3502,90,Retrograde-8,15,3,-1
Flight 11,488823.4296,75358.96618,-11,3501,90,Retrograde-8,15,1,-1
Flight 11,488823.6696,75223.84444,-11,3498,90,Retrograde-8,15,3,0
Flight 11,488823.9096,75088.17931,-13,3494,90,Retrograde-8,15,4,-2
Flight 11,488824.1496,74951.97266,-13,3494,90,Retrograde-8,15,0,0
Flight 11,488824.3896,74815.19495,-12,3497,90,Retrograde-8,15,-3,1
Flight 11,488824.6296,74677.84916,-11,3499,90,Retrograde-8,15,-2,1
Flight 11,488824.8696,74539.94457,-10,3503,90,Retrograde-8,15,-4,1
Flight 11,488825.1096,74401.48302,-9,3507,90,Retrograde-8,15,-4,1
Flight 11,488825.3496,74262.45949,-8,3510,90,Retrograde-8,15,-3,1
Flight 11,488825.5896,74122.86489,-7,3514,90,Retrograde-8,15,-4,1
Flight 11,488825.8296,73982.71147,-6,3517,90,Retrograde-8,15,-3,1
Flight 11,488826.0696,73841.98324,-5,3520,90,Retrograde-8,15,-3,1
Flight 11,488826.3096,73700.69928,-4,3523,90,Retrograde-8,15,-3,1
Flight 11,488826.5496,73558.86624,-3,3525,90,Retrograde-8,15,-2,1
Flight 11,488826.7896,73416.4596,-2,3529,90,Retrograde-8,0,-4,1
Flight 11,488827.0296,73273.48992,-2,3530,90,Retrograde-8,0,-1,0
Flight 11,488827.2696,73129.97685,-2,3530,90,Retrograde-8,0,0,0
Flight 11,488827.5096,72985.93087,-3,3529,90,Retrograde-8,15,1,-1
Flight 11,488827.7496,72841.32615,-3,3527,90,Retrograde-8,15,2,0
Flight 11,488827.9896,72696.16709,-3,3527,90,Retrograde-8,15,0,0
Flight 11,488828.2296,72550.46399,-4,3525,90,Retrograde-8,15,2,-1
Flight 11,488828.4696,72404.21385,-4,3523,90,Retrograde-8,15,2,0
Flight 11,488828.7096,72257.41171,-4,3523,90,Retrograde-8,15,0,0
Flight 11,488828.9496,72110.06131,-4,3523,90,Retrograde-8,15,0,0
Flight 11,488829.1896,71962.15396,-4,3524,90,Retrograde-8,15,-1,0
Flight 11,488829.4296,71813.69648,-4,3524,90,Retrograde-8,15,0,0
Flight 11,488829.6696,71664.68149,-4,3524,90,Retrograde-8,15,0,0
Flight 11,488829.9096,71515.11945,-4,3524,90,Retrograde-8,15,0,0
Flight 11,488830.1496,71365.01085,-4,3523,90,Retrograde-8,15,1,0
Flight 11,488830.3896,71214.34116,-4,3523,90,Retrograde-8,15,0,0
Flight 11,488830.6296,71063.12613,-4,3522,90,Retrograde-8,15,1,0
Flight 11,488830.8696,70911.35611,-4,3522,90,Retrograde-8,15,0,0
Flight 11,488831.1096,70759.03952,-4,3523,90,Retrograde-8,15,-1,0
Flight 11,488831.3496,70606.1612,-4,3522,90,Retrograde-8,15,1,0
Flight 11,488831.5896,70452.73396,-4,3523,90,Retrograde-8,15,-1,0
Flight 11,488831.8296,70298.75343,-5,3522,90,Retrograde-8,15,1,-1
Flight 11,488832.0696,70144.21724,-4,3522,90,Retrograde-8,15,0,1
Flight 11,488832.3096,69989.14562,-4,3522,90,Retrograde-8,15,0,0
Flight 11,488832.5496,69833.50974,-4,3521,90,Retrograde-8,15,1,0
Flight 11,488832.7896,69677.31602,-4,3522,90,Retrograde-8,15,-1,0
Flight 11,488833.0296,69520.57305,-4,3522,90,Retrograde-8,15,0,0
Flight 11,488833.2696,69363.28118,-4,3522,90,Retrograde-8,15,0,0
Flight 11,488833.5096,69205.44306,-4,3522,90,Retrograde-8,15,0,0
Flight 11,488833.7496,69047.04037,-4,3522,90,Retrograde-8,15,0,0
Flight 11,488833.9896,68888.09062,-4,3522,90,Retrograde-8,15,0,0
Flight 11,488834.2296,68728.58117,-4,3522,90,Retrograde-8,15,0,0
Flight 11,488834.4696,68568.53506,-4,3521,90,Retrograde-8,15,1,0
Flight 11,488834.7096,68407.92526,-5,3521,90,Retrograde-8,15,0,-1
Flight 11,488834.9496,68246.76686,-5,3521,90,Retrograde-8,15,0,0
Flight 11,488835.1896,68085.04876,-5,3521,90,Retrograde-8,15,0,0
Flight 11,488835.4296,67922.77955,-5,3522,90,Retrograde-8,15,-1,0
Flight 11,488835.6696,67759.96596,-5,3522,90,Retrograde-8,15,0,0
Flight 11,488835.9096,67596.59092,-5,3522,90,Retrograde-8,15,0,0
Flight 11,488836.1496,67432.67244,-5,3521,90,Retrograde-8,15,1,0
Flight 11,488836.3896,67268.19644,-5,3521,90,Retrograde-8,15,0,0
Flight 11,488836.6296,67103.16227,-5,3520,90,Retrograde-8,15,1,0
Flight 11,488836.8696,66937.58465,-5,3521,90,Retrograde-8,15,-1,0
Flight 11,488837.1096,66771.45078,-4,3521,90,Retrograde-8,15,0,1
Flight 11,488837.3496,66604.76211,-5,3521,90,Retrograde-8,15,0,-1
Flight 11,488837.5896,66437.52452,-5,3521,90,Retrograde-8,15,0,0
Flight 11,488837.8296,66269.73548,-5,3521,90,Retrograde-8,15,0,0
Flight 11,488838.0696,66101.39047,-5,3521,90,Retrograde-8,15,0,0
Flight 11,488838.3096,65932.49435,-5,3520,90,Retrograde-8,15,1,0
Flight 11,488838.5496,65763.04898,-5,3519,90,Retrograde-8,15,1,0
Flight 11,488838.7896,65593.04853,-5,3519,90,Retrograde-8,15,0,0
Flight 11,488839.0296,65422.49851,-5,3520,90,Retrograde-8,15,-1,0
Flight 11,488839.2696,65251.39307,-5,3520,90,Retrograde-8,15,0,0
Flight 11,488839.5096,65079.73409,-5,3520,90,Retrograde-8,15,0,0
Flight 11,488839.7496,64907.52399,-5,3521,90,Retrograde-8,15,-1,0
Flight 11,488839.9896,64734.76128,-5,3520,90,Retrograde-8,15,1,0
Flight 11,488840.2254,64564.49792,-5,3519,90,Retrograde-8,15,1,0
Flight 11,488840.4265,64418.87872,-5,3514,90,Retrograde-8,15,5,0
Flight 11,488840.5935,64297.66218,-5,3509,90,Retrograde-8,15,5,0
Flight 11,488840.7731,64166.99804,-5,3504,90,Retrograde-8,15,5,0
Flight 11,488840.9134,64064.77613,-5,3501,90,Retrograde-8,15,3,0
Flight 11,488841.0463,63967.70687,-5,3498,90,Retrograde-8,15,3,0
Flight 11,488841.169,63877.96134,-6,3491,90,Retrograde-8,15,7,-1
Flight 11,488841.309,63775.38579,-5,3491,90,Retrograde-8,15,0,1
Flight 11,488841.449,63672.62079,-5,3491,90,Retrograde-8,15,0,0
Flight 11,488841.589,63569.66732,-5,3491,90,Retrograde-8,15,0,0
Flight 11,488841.729,63466.53114,-5,3491,90,Retrograde-8,15,0,0
Flight 11,488841.869,63363.2028,-5,3491,90,Retrograde-8,15,0,0
Flight 11,488842.009,63259.68599,-5,3490,90,Retrograde-8,15,1,0
Flight 11,488842.149,63155.98123,-5,3490,90,Retrograde-8,15,0,0
Flight 11,488842.289,63052.09385,-5,3490,90,Retrograde-8,15,0,0
Flight 11,488842.429,62948.01674,-5,3489,90,Retrograde-8,15,1,0
Flight 11,488842.569,62843.75018,-5,3489,90,Retrograde-8,15,0,0
Flight 11,488842.709,62739.29516,-5,3489,90,Retrograde-8,15,0,0
Flight 11,488842.849,62634.6504,-5,3490,90,Retrograde-8,15,-1,0
Flight 11,488842.989,62529.82144,-5,3490,90,Retrograde-8,15,0,0
Flight 11,488843.129,62424.80424,-5,3490,90,Retrograde-8,15,0,0
Flight 11,488843.269,62319.59643,-5,3490,90,Retrograde-8,15,0,0
Flight 11,488843.409,62214.20015,-5,3490,90,Retrograde-8,15,0,0
Flight 11,488843.549,62108.61961,-5,3490,90,Retrograde-8,15,0,0
Flight 11,488843.689,62002.84845,-5,3490,90,Retrograde-8,15,0,0
Flight 11,488843.829,61896.89337,-5,3490,90,Retrograde-8,15,0,0
Flight 11,488843.969,61790.7486,-5,3490,90,Retrograde-8,15,0,0
Flight 11,488844.109,61684.41223,-5,3489,90,Retrograde-8,15,1,0
Flight 11,488844.249,61577.89164,-5,3489,90,Retrograde-8,15,0,0
Flight 11,488844.389,61471.18227,-5,3488,90,Retrograde-8,15,1,0
Flight 11,488844.529,61364.2862,-5,3489,90,Retrograde-8,15,-1,0
Flight 11,488844.669,61257.19891,-5,3489,90,Retrograde-8,15,0,0
Flight 11,488844.809,61149.92399,-5,3489,90,Retrograde-8,15,0,0
Flight 11,488844.949,61042.46308,-5,3489,90,Retrograde-8,15,0,0
Flight 11,488845.089,60934.81328,-5,3489,90,Retrograde-8,15,0,0
Flight 11,488845.229,60826.97722,-5,3489,90,Retrograde-8,15,0,0
Flight 11,488845.369,60718.95381,-5,3489,90,Retrograde-8,15,0,0
Flight 11,488845.509,60610.73917,-5,3489,90,Retrograde-8,15,0,0
Flight 11,488845.649,60502.33878,-5,3489,90,Retrograde-8,15,0,0
Flight 11,488845.789,60393.74805,-5,3489,90,Retrograde-8,15,0,0
Flight 11,488845.929,60284.97344,-5,3489,90,Retrograde-8,15,0,0
Flight 11,488846.069,60176.01148,-5,3489,90,Retrograde-8,15,0,0
Flight 11,488846.209,60066.85895,-5,3488,90,Retrograde-8,15,1,0
Flight 11,488846.349,59957.51907,-5,3488,90,Retrograde-8,15,0,0
Flight 11,488846.489,59847.99292,-5,3487,90,Retrograde-8,15,1,0
Flight 11,488846.629,59738.27942,-6,3488,90,Retrograde-8,15,-1,-1
Flight 11,488846.769,59628.37559,-5,3488,90,Retrograde-8,15,0,1
Flight 11,488846.909,59518.28755,-6,3488,90,Retrograde-8,15,0,-1
Flight 11,488847.049,59408.00917,-6,3488,90,Retrograde-8,15,0,0
Flight 11,488847.189,59297.54447,-6,3488,90,Retrograde-8,15,0,0
Flight 11,488847.329,59186.88845,-6,3489,90,Retrograde-8,15,-1,0
Flight 11,488847.469,59076.04667,-6,3488,90,Retrograde-8,15,1,0
Flight 11,488847.609,58965.0167,-6,3488,90,Retrograde-8,15,0,0
Flight 11,488847.749,58853.80037,-6,3488,90,Retrograde-8,15,0,0
Flight 11,488847.889,58742.39678,-5,3488,90,Retrograde-8,15,0,1
Flight 11,488848.029,58630.80254,-6,3488,90,Retrograde-8,15,0,-1
Flight 11,488848.169,58519.02253,-6,3487,90,Retrograde-8,15,1,0
Flight 11,488848.309,58407.0571,-5,3487,90,Retrograde-8,15,0,1
Flight 11,488848.449,58294.90282,-5,3486,90,Retrograde-8,15,1,0
Flight 11,488848.589,58182.56377,-6,3486,90,Retrograde-8,15,0,-1
Flight 11,488848.729,58070.03064,-5,3487,90,Retrograde-8,15,-1,1
Flight 11,488848.869,57957.31334,-6,3487,90,Retrograde-8,15,0,-1
Flight 11,488849.009,57844.40902,-6,3487,90,Retrograde-8,15,0,0
Flight 11,488849.149,57731.31811,-6,3487,90,Retrograde-8,15,0,0
Flight 11,488849.289,57618.03924,-6,3487,90,Retrograde-8,15,0,0
Flight 11,488849.429,57504.57554,-6,3487,90,Retrograde-8,15,0,0
Flight 11,488849.569,57390.91969,-6,3487,90,Retrograde-8,15,0,0
Flight 11,488849.709,57277.07714,-5,3487,90,Retrograde-8,15,0,1
Flight 11,488849.849,57163.04827,-5,3486,90,Retrograde-8,15,1,0
Flight 11,488849.989,57048.83145,-6,3486,90,Retrograde-8,15,0,-1
Flight 11,488850.129,56934.42709,-6,3486,90,Retrograde-8,15,0,0
Flight 11,488850.269,56819.83478,-6,3485,90,Retrograde-8,15,1,0
Flight 11,488850.409,56705.0568,-6,3485,90,Retrograde-8,15,0,0
Flight 11,488850.549,56590.08811,-6,3485,90,Retrograde-8,15,0,0
Flight 11,488850.689,56474.93862,-6,3485,90,Retrograde-8,15,0,0
Flight 11,488850.829,56359.59537,-6,3485,90,Retrograde-8,15,0,0
Flight 11,488850.969,56244.06636,-6,3485,90,Retrograde-8,15,0,0
Flight 11,488851.109,56128.3602,-6,3485,90,Retrograde-8,15,0,0
Flight 11,488851.249,56012.45757,-6,3485,90,Retrograde-8,15,0,0
Flight 11,488851.389,55896.37012,-6,3485,90,Retrograde-8,15,0,0
Flight 11,488851.529,55780.09229,-6,3485,90,Retrograde-8,15,0,0
Flight 11,488851.669,55663.63028,-6,3485,90,Retrograde-8,15,0,0
Flight 11,488851.809,55546.97882,-6,3485,90,Retrograde-8,15,0,0
Flight 11,488851.949,55430.1453,-6,3484,90,Retrograde-8,15,1,0
Flight 11,488852.089,55313.11835,-6,3484,90,Retrograde-8,15,0,0
Flight 11,488852.229,55195.90719,-6,3483,90,Retrograde-8,15,1,0
Flight 11,488852.369,55078.50689,-6,3483,90,Retrograde-8,15,0,0
Flight 11,488852.509,54960.92294,-6,3483,90,Retrograde-8,15,0,0
Flight 11,488852.649,54843.14776,-6,3483,90,Retrograde-8,15,0,0
Flight 11,488852.789,54725.18959,-6,3483,90,Retrograde-8,15,0,0
Flight 11,488852.929,54607.04382,-6,3483,90,Retrograde-8,15,0,0
Flight 11,488853.069,54488.708,-6,3483,90,Retrograde-8,15,0,0
Flight 11,488853.209,54370.18702,-6,3483,90,Retrograde-8,15,0,0
Flight 11,488853.349,54251.47631,-6,3483,90,Retrograde-8,15,0,0
Flight 11,488853.489,54132.58137,-6,3483,90,Retrograde-8,15,0,0
Flight 11,488853.629,54013.49915,-6,3483,90,Retrograde-8,15,0,0
Flight 11,488853.769,53894.23119,-5,3483,90,Retrograde-8,15,0,1
Flight 11,488853.909,53774.77501,-6,3483,90,Retrograde-8,15,0,-1
Flight 11,488854.049,53655.13428,-6,3482,90,Retrograde-8,15,1,0
Flight 11,488854.189,53535.30414,-5,3481,90,Retrograde-8,15,1,1
Flight 11,488854.329,53415.29072,-6,3481,90,Retrograde-8,15,0,-1
Flight 11,488854.469,53295.09,-5,3480,90,Retrograde-8,15,1,1
Flight 11,488854.609,53174.70318,-6,3481,90,Retrograde-8,15,-1,-1
Flight 11,488854.749,53054.12851,-6,3481,90,Retrograde-8,15,0,0
Flight 11,488854.889,52933.36868,-6,3481,90,Retrograde-8,15,0,0
Flight 11,488855.029,52812.42065,-6,3481,90,Retrograde-8,15,0,0
Flight 11,488855.169,52691.28434,-6,3481,90,Retrograde-8,15,0,0
Flight 11,488855.309,52569.96142,-6,3481,90,Retrograde-8,15,0,0
